"CASE_ENQUIRY_ID","OPEN_DT","TARGET_DT","CLOSED_DT","OnTime_Status","CASE_STATUS","CLOSURE_REASON","CASE_TITLE","SUBJECT","REASON","TYPE","QUEUE","Department","SubmittedPhoto","ClosedPhoto","Location","fire_district","pwd_district","city_council_district","police_district","neighborhood","neighborhood_services_district","ward","precinct","land_usage","LOCATION_STREET_NAME","LOCATION_ZIPCODE","Property_Type","Property_ID","LATITUDE","LONGITUDE","Source","Geocoded_Location"
101000295628,"07/01/2011 07:16:44 AM","07/31/2011 07:16:44 AM","07/08/2011 10:44:08 AM","ONTIME","Closed","Case Closed VIOISS: Violation Filed","Rodent Activity","Inspectional Services","Environmental Services","Rodent Activity","ISD_Environmental Services (INTERNAL)","ISD",NA,NA,"26 Fayette St  Boston  MA  02116",4,"1C",2,"A1","Back Bay",6,"Ward 5",501,"R4","26 Fayette St",2116,"Address",56994,42.3487,-71.0675,"Constituent Call","(42.3487, -71.0675)"
101000295708,"07/01/2011 08:26:58 AM","07/31/2011 08:26:58 AM","08/15/2011 10:15:34 AM","OVERDUE","Closed","Case Closed VIOCOR: Violation Corrected","Rodent Activity","Inspectional Services","Environmental Services","Rodent Activity","ISD_Environmental Services (INTERNAL)","ISD",NA,NA,"9 Baldwin Pl  Brighton  MA  02135",11,"04",9,"D14","Allston / Brighton",15,"Ward 22",2203,"R2","9 Baldwin Pl",2135,"Address",181871,42.3484,-71.1542,"Constituent Call","(42.3484, -71.1542)"
101000295769,"07/01/2011 09:45:28 AM","07/31/2011 09:45:26 AM","02/03/2012 10:05:40 AM","OVERDUE","Closed","Case Closed VIOISS: Violation Filed","Rodent Activity","Inspectional Services","Environmental Services","Rodent Activity","ISD_Environmental Services (INTERNAL)","ISD",NA,NA,"8 Paxton St  Dorchester  MA  02124",8,"07",4,"B3","Greater Mattapan",9,"Ward 14",1411,"CD","8 Paxton St",2124,"Address",108664,42.2921,-71.0896,"Constituent Call","(42.2921, -71.0896)"
101000295953,"07/01/2011 01:53:15 PM","07/31/2011 01:53:15 PM","07/27/2011 10:28:40 AM","ONTIME","Closed","Case Closed NOVIO: No Violation Found/No Cause","Rodent Activity","Inspectional Services","Environmental Services","Rodent Activity","ISD_Environmental Services (INTERNAL)","ISD",NA,NA,"",NA,"",NA,"","",NA,"",NA,"","",NA,"",NA,42.3594,-71.0587,"Constituent Call","(42.3594, -71.0587)"
101000295962,"07/01/2011 02:15:14 PM","07/31/2011 02:15:13 PM","07/08/2011 09:48:36 AM","ONTIME","Closed","Case Closed NOVIO: No Violation Found/No Cause","Rodent Activity","Inspectional Services","Environmental Services","Rodent Activity","ISD_Environmental Services (INTERNAL)","ISD",NA,NA,"",NA,"",NA,"","",NA,"",NA,"","",NA,"",NA,42.3594,-71.0587,"Constituent Call","(42.3594, -71.0587)"
101000296282,"07/03/2011 06:37:53 PM","08/02/2011 06:37:53 PM","07/08/2011 09:35:45 AM","ONTIME","Closed","Case Closed NOVIO: No Violation Found/No Cause","Rodent Activity","Inspectional Services","Environmental Services","Rodent Activity","ISD_Environmental Services (INTERNAL)","ISD",NA,NA,"10-12 Saunders St  Allston  MA  02134",11,"04",9,"D14","Allston / Brighton",15,"Ward 21",2106,"R2","10-12 Saunders St",2134,"Address",122967,42.3525,-71.142,"Constituent Call","(42.3525, -71.142)"
101000296584,"07/05/2011 10:08:39 AM","08/04/2011 10:08:39 AM","07/12/2011 10:58:07 AM","ONTIME","Closed","Case Closed VIOCOR: Violation Corrected","Rodent Activity","Inspectional Services","Environmental Services","Rodent Activity","ISD_Environmental Services (INTERNAL)","ISD",NA,NA,"21 Brighton St  Charlestown  MA  02129",3,"1A",1,"A15","Charlestown",2,"Ward 2",207,"R1","21 Brighton St",2129,"Address",20203,42.3834,-71.0778,"Constituent Call","(42.3834, -71.0778)"
101000296595,"07/05/2011 10:15:42 AM","08/04/2011 10:15:42 AM","07/08/2011 09:49:49 AM","ONTIME","Closed","Case Closed NOVIO: No Violation Found/No Cause","Rodent Activity","Inspectional Services","Environmental Services","Rodent Activity","ISD_Environmental Services (INTERNAL)","ISD",NA,NA,"25 Worcester St  Roxbury  MA  02118",4,"1C",7,"D4","South End",6,"Ward 9",902,"R3","25 Worcester St",2118,"Address",152423,42.3382,-71.0763,"Constituent Call","(42.3382, -71.0763)"
101000296619,"07/05/2011 10:33:38 AM","08/04/2011 10:33:38 AM","07/08/2011 09:53:02 AM","ONTIME","Closed","Case Closed VIOCOR: Violation Corrected","Rodent Activity","Inspectional Services","Environmental Services","Rodent Activity","ISD_Environmental Services (INTERNAL)","ISD",NA,NA,"",NA,"",NA,"","",NA,"",NA,"","",NA,"",NA,42.3594,-71.0587,"Constituent Call","(42.3594, -71.0587)"
101000296649,"07/05/2011 10:52:32 AM","08/04/2011 10:52:32 AM","09/20/2011 12:01:44 PM","OVERDUE","Closed","Case Closed VIOCOR: Violation Corrected","Rodent Activity","Inspectional Services","Environmental Services","Rodent Activity","ISD_Environmental Services (INTERNAL)","ISD",NA,NA,"362-364 Washington St  Brighton  MA  02135",11,"04",9,"D14","Allston / Brighton",15,"Ward 22",2203,"RC","362-364 Washington St",2135,"Address",143525,42.349,-71.1536,"Constituent Call","(42.349, -71.1536)"
101000296675,"07/05/2011 11:19:27 AM","08/04/2011 11:19:26 AM","02/02/2012 11:54:34 AM","OVERDUE","Closed","Case Closed VIOCOR: Violation Corrected","Rodent Activity","Inspectional Services","Environmental Services","Rodent Activity","ISD_Environmental Services (INTERNAL)","ISD",NA,NA,"",NA,"",NA,"","",NA,"",NA,"","",NA,"",NA,42.3594,-71.0587,"Constituent Call","(42.3594, -71.0587)"
101000296694,"07/05/2011 11:39:06 AM","08/04/2011 11:39:06 AM","08/03/2011 12:07:19 PM","ONTIME","Closed","Case Closed VIOCOR: Violation Corrected","Rodent Activity","Inspectional Services","Environmental Services","Rodent Activity","ISD_Environmental Services (INTERNAL)","ISD",NA,NA,"",NA,"",NA,"","",NA,"",NA,"","",NA,"",NA,42.3594,-71.0587,"Constituent Call","(42.3594, -71.0587)"
101000296696,"07/05/2011 11:42:08 AM","08/04/2011 11:42:07 AM","08/03/2011 12:09:22 PM","ONTIME","Closed","Case Closed VIOCOR: Violation Corrected","Rodent Activity","Inspectional Services","Environmental Services","Rodent Activity","ISD_Environmental Services (INTERNAL)","ISD",NA,NA,"374-378 Washington St  Dorchester  MA  02124",7,"03",4,"C11","Dorchester",9,"Ward 17",1701,"RC","374-378 Washington St",2124,"Address",146054,42.2987,-71.0729,"Constituent Call","(42.2987, -71.0729)"
101000296788,"07/05/2011 01:52:57 PM","08/04/2011 01:52:57 PM","07/27/2011 11:48:15 AM","ONTIME","Closed","Case Closed VIOCOR: Violation Corrected","Rodent Activity","Inspectional Services","Environmental Services","Rodent Activity","ISD_Environmental Services (INTERNAL)","ISD",NA,NA,"120-114 Blackstone St  Boston  MA  02109",3,"1B",1,"A1","Downtown / Financial District",3,"Ward 3",306,"C","120-114 Blackstone St",2109,"Address",161028,42.3618,-71.0568,"Constituent Call","(42.3618, -71.0568)"
101000296932,"07/05/2011 09:47:39 PM","08/04/2011 09:47:39 PM","07/12/2011 10:43:17 AM","ONTIME","Closed","Case Closed VIOCOR: Violation Corrected","Rodent Activity","Inspectional Services","Environmental Services","Rodent Activity","ISD_Environmental Services (INTERNAL)","ISD",NA,NA,"",NA,"",NA,"","",NA,"",NA,"","",NA,"",NA,42.3594,-71.0587,"Constituent Call","(42.3594, -71.0587)"
101000296964,"07/06/2011 07:03:13 AM","08/05/2011 07:03:12 AM","11/08/2011 10:06:05 AM","OVERDUE","Closed","Case Closed VIOCOR: Violation Corrected","Rodent Activity","Inspectional Services","Environmental Services","Rodent Activity","ISD_Environmental Services (INTERNAL)","ISD",NA,NA,"39 Marlborough St  Boston  MA  02116",4,"1C",8,"D4","Back Bay",14,"Ward 5",506,"CM","39 Marlborough St",2116,"Address",91178,42.3543,-71.0742,"Constituent Call","(42.3543, -71.0742)"
101000296980,"07/06/2011 08:01:52 AM","08/05/2011 08:01:51 AM","07/29/2011 10:09:05 AM","ONTIME","Closed","Case Closed VIOCOR: Violation Corrected","Rodent Activity","Inspectional Services","Environmental Services","Rodent Activity","ISD_Environmental Services (INTERNAL)","ISD",NA,NA,"24 Armington St  Allston  MA  02134",11,"04",9,"D14","Allston / Brighton",15,"Ward 21",2106,"R4","24 Armington St",2134,"Address",161632,42.3524,-71.137,"Constituent Call","(42.3524, -71.137)"
101000297016,"07/06/2011 08:44:59 AM","08/05/2011 08:44:58 AM","08/10/2011 09:44:05 AM","OVERDUE","Closed","Case Closed VIOCOR: Violation Corrected","Rodent Activity","Inspectional Services","Environmental Services","Rodent Activity","ISD_Environmental Services (INTERNAL)","ISD",NA,NA,"79 Saxton St  Dorchester  MA  02125",7,"03",3,"C11","Dorchester",7,"Ward 13",1310,"R3","79 Saxton St",2125,"Address",123674,42.315,-71.0536,"Constituent Call","(42.315, -71.0536)"
101000297022,"07/06/2011 08:50:57 AM","08/05/2011 08:50:56 AM","08/15/2011 09:41:01 AM","OVERDUE","Closed","Case Closed VIOCOR: Violation Corrected","Rodent Activity","Inspectional Services","Environmental Services","Rodent Activity","ISD_Environmental Services (INTERNAL)","ISD",NA,NA,"294 Bowdoin St  Dorchester  MA  02125",7,"03",3,"C11","Dorchester",8,"Ward 15",1503,"C","294 Bowdoin St",2125,"Address",17714,42.3076,-71.066,"Constituent Call","(42.3076, -71.066)"
101000297067,"07/06/2011 09:44:43 AM","08/05/2011 09:44:43 AM","08/16/2011 08:52:01 AM","OVERDUE","Closed","Case Closed VIOCOR: Violation Corrected","Rodent Activity","Inspectional Services","Environmental Services","Rodent Activity","ISD_Environmental Services (INTERNAL)","ISD",NA,NA,"36 Crescent Ave  Dorchester  MA  02125",7,"03",3,"C11","Dorchester",7,"Ward 13",1307,"R3","36 Crescent Ave",2125,"Address",220439,42.3191,-71.0549,"Constituent Call","(42.3191, -71.0549)"
101000297532,"07/06/2011 11:40:50 AM","08/05/2011 11:40:49 AM","08/11/2011 09:01:46 AM","OVERDUE","Closed","Case Closed VIOCOR: Violation Corrected","Rodent Activity","Inspectional Services","Environmental Services","Rodent Activity","ISD_Environmental Services (INTERNAL)","ISD",NA,NA,"",NA,"",NA,"","",NA,"",NA,"","",NA,"",NA,42.3594,-71.0587,"Constituent Call","(42.3594, -71.0587)"
101000297534,"07/06/2011 11:43:19 AM","08/05/2011 11:43:19 AM","09/20/2011 12:03:24 PM","OVERDUE","Closed","Case Closed VIOCOR: Violation Corrected","Rodent Activity","Inspectional Services","Environmental Services","Rodent Activity","ISD_Environmental Services (INTERNAL)","ISD",NA,NA,"131 Arlington St  Boston  MA  02116",4,"1C",2,"A1","Back Bay",6,"Ward 5",501,"C","131 Arlington St",2116,"Address",4814,42.3489,-71.0697,"Constituent Call","(42.3489, -71.0697)"
101000297538,"07/06/2011 11:46:21 AM","08/05/2011 11:46:20 AM","07/12/2011 11:02:27 AM","ONTIME","Closed","Case Closed NOVIO: No Violation Found/No Cause","Rodent Activity","Inspectional Services","Environmental Services","Rodent Activity","ISD_Environmental Services (INTERNAL)","ISD",NA,NA,"40 Brackett St  Brighton  MA  02135",11,"04",9,"D14","Allston / Brighton",15,"Ward 22",2207,"R2","40 Brackett St",2135,"Address",18733,42.3515,-71.1654,"Constituent Call","(42.3515, -71.1654)"
101000297541,"07/06/2011 11:49:31 AM","08/05/2011 11:49:31 AM","07/27/2011 11:46:48 AM","ONTIME","Closed","Case Closed VIOCOR: Violation Corrected","Rodent Activity","Inspectional Services","Environmental Services","Rodent Activity","ISD_Environmental Services (INTERNAL)","ISD",NA,NA,"21 Hancock St  Boston  MA  02114",3,"1B",1,"A1","Beacon Hill",3,"Ward 3",306,"CD","21 Hancock St",2114,"Address",68678,42.3605,-71.0647,"Constituent Call","(42.3605, -71.0647)"
101000297548,"07/06/2011 11:54:28 AM","08/05/2011 11:54:28 AM","07/12/2011 11:03:32 AM","ONTIME","Closed","Case Closed NOVIO: No Violation Found/No Cause","Rodent Activity","Inspectional Services","Environmental Services","Rodent Activity","ISD_Environmental Services (INTERNAL)","ISD",NA,NA,"351 Washington St  Brighton  MA  02135",11,"04",9,"D14","Allston / Brighton",15,"Ward 22",2203,"C","351 Washington St",2135,"Address",157546,42.3493,-71.1528,"Constituent Call","(42.3493, -71.1528)"
101000297735,"07/06/2011 02:37:49 PM","08/05/2011 02:37:49 PM","07/12/2011 10:44:21 AM","ONTIME","Closed","Case Closed NOVIO: No Violation Found/No Cause","Rodent Activity","Inspectional Services","Environmental Services","Rodent Activity","ISD_Environmental Services (INTERNAL)","ISD",NA,NA,"7 Rustlewood Rd  West Roxbury  MA  02132",12,"06",6,"E5","West Roxbury",12,"Ward 20",2012,"R1","7 Rustlewood Rd",2132,"Address",119884,42.2897,-71.1595,"Constituent Call","(42.2897, -71.1595)"
101000297745,"07/06/2011 03:03:58 PM","08/05/2011 03:03:58 PM","07/18/2011 11:07:19 AM","ONTIME","Closed","Case Closed NOVIO: No Violation Found/No Cause","Rodent Activity","Inspectional Services","Environmental Services","Rodent Activity","ISD_Environmental Services (INTERNAL)","ISD",NA,NA,"85 Franklin St  Allston  MA  02134",11,"04",9,"D14","Allston / Brighton",15,"Ward 22",2201,"R1","85 Franklin St",2134,"Address",60653,42.3587,-71.1328,"Constituent Call","(42.3587, -71.1328)"
101000297758,"07/06/2011 03:17:02 PM","08/05/2011 03:17:01 PM","07/18/2011 11:50:29 AM","ONTIME","Closed","Case Closed VIOCOR: Violation Corrected","Rodent Activity","Inspectional Services","Environmental Services","Rodent Activity","ISD_Environmental Services (INTERNAL)","ISD",NA,NA,"",NA,"",NA,"","",NA,"",NA,"","",NA,"",NA,42.3594,-71.0587,"Constituent Call","(42.3594, -71.0587)"
101000297767,"07/06/2011 03:20:17 PM","08/05/2011 03:20:17 PM","05/25/2012 09:31:57 AM","OVERDUE","Closed","Case Closed VIOCOR: Violation Corrected","Rodent Activity","Inspectional Services","Environmental Services","Rodent Activity","ISD_Environmental Services (INTERNAL)","ISD",NA,NA,"",NA,"",NA,"","",NA,"",NA,"","",NA,"",NA,42.3594,-71.0587,"Constituent Call","(42.3594, -71.0587)"
101000297844,"07/06/2011 05:44:51 PM","08/05/2011 05:44:51 PM","07/27/2011 12:03:35 PM","ONTIME","Closed","Case Closed NOVIO: No Violation Found/No Cause","Rodent Activity","Inspectional Services","Environmental Services","Rodent Activity","ISD_Environmental Services (INTERNAL)","ISD",NA,NA,"105 W Springfield St  Roxbury  MA  02118",4,"1C",7,"D4","South End",6,"Ward 9",902,"R3","105 W Springfield St",2118,"Address",129914,42.3381,-71.0775,"Constituent Call","(42.3381, -71.0775)"
101000297923,"07/07/2011 07:16:49 AM","08/06/2011 07:16:49 AM","10/05/2011 11:13:00 AM","OVERDUE","Closed","Case Closed VIOCOR: Violation Corrected","Rodent Activity","Inspectional Services","Environmental Services","Rodent Activity","ISD_Environmental Services (INTERNAL)","ISD",NA,NA,"504 E Third St  South Boston  MA  02127",6,"05",2,"C6","South Boston / South Boston Waterfront",5,"Ward 6",605,"R1","504 E Third St",2127,"Address",134976,42.3366,-71.0397,"Constituent Call","(42.3366, -71.0397)"
101000297996,"07/07/2011 08:48:42 AM","08/06/2011 08:48:42 AM","07/29/2011 11:06:31 AM","ONTIME","Closed","Case Closed VIOCOR: Violation Corrected","Rodent Activity","Inspectional Services","Environmental Services","Rodent Activity","ISD_Environmental Services (INTERNAL)","ISD",NA,NA,"11 Rustlewood Rd  West Roxbury  MA  02132",12,"06",6,"E5","West Roxbury",12,"Ward 20",2012,"R1","11 Rustlewood Rd",2132,"Address",119879,42.2895,-71.1598,"Constituent Call","(42.2895, -71.1598)"
101000298042,"07/07/2011 09:24:47 AM","08/06/2011 09:24:45 AM","07/12/2011 11:01:30 AM","ONTIME","Closed","Case Closed NOVIO: No Violation Found/No Cause","Rodent Activity","Inspectional Services","Environmental Services","Rodent Activity","ISD_Environmental Services (INTERNAL)","ISD",NA,NA,"",NA,"",NA,"","",NA,"",NA,"","",NA,"",NA,42.3594,-71.0587,"Constituent Call","(42.3594, -71.0587)"
101000298741,"07/08/2011 08:38:13 AM","08/07/2011 08:38:13 AM","02/06/2012 11:57:53 AM","OVERDUE","Closed","Case Closed VIOCOR: Violation Corrected","Rodent Activity","Inspectional Services","Environmental Services","Rodent Activity","ISD_Environmental Services (INTERNAL)","ISD",NA,NA,"25 Chester St  Allston  MA  02134",11,"04",9,"D14","Allston / Brighton",14,"Ward 21",2103,"CM","25 Chester St",2134,"Address",30838,42.3517,-71.1284,"Constituent Call","(42.3517, -71.1284)"
101000298819,"07/08/2011 09:58:28 AM","08/07/2011 09:58:28 AM","07/18/2011 11:58:33 AM","ONTIME","Closed","Case Closed NOVIO: No Violation Found/No Cause","Rodent Activity","Inspectional Services","Environmental Services","Rodent Activity","ISD_Environmental Services (INTERNAL)","ISD",NA,NA,"204 Hemenway St  Boston  MA  02115",4,"10A",7,"D4","Fenway / Kenmore / Audubon Circle / Longwood",13,"Ward 4",409,"A","204 Hemenway St",2115,"Address",72633,42.3404,-71.0913,"Constituent Call","(42.3404, -71.0913)"
101000298927,"07/08/2011 12:21:56 PM","08/07/2011 12:21:56 PM","","OVERDUE","Open","","Rodent Activity","Inspectional Services","Environmental Services","Rodent Activity","ISD_Environmental Services (INTERNAL)","ISD",NA,NA,"24 Armington St  Allston  MA  02134",11,"04",9,"D14","Allston / Brighton",15,"Ward 21",2106,"R4","24 Armington St",2134,"Address",161632,42.3524,-71.137,"Constituent Call","(42.3524, -71.137)"
101000298992,"07/08/2011 01:58:47 PM","08/07/2011 01:58:47 PM","07/18/2011 11:17:47 AM","ONTIME","Closed","Case Closed NOVIO: No Violation Found/No Cause","Rodent Activity","Inspectional Services","Environmental Services","Rodent Activity","ISD_Environmental Services (INTERNAL)","ISD",NA,NA,"91 Litchfield St  Brighton  MA  02135",11,"04",9,"D14","Allston / Brighton",15,"Ward 22",2205,"R1","91 Litchfield St",2135,"Address",86747,42.3613,-71.1399,"Constituent Call","(42.3613, -71.1399)"
101000299025,"07/08/2011 02:54:18 PM","08/07/2011 02:54:18 PM","12/01/2011 11:28:03 AM","OVERDUE","Closed","Case Closed VIOCOR: Violation Corrected","Rodent Activity","Inspectional Services","Environmental Services","Rodent Activity","ISD_Environmental Services (INTERNAL)","ISD",NA,NA,"",NA,"",NA,"","",NA,"",NA,"","",NA,"",NA,42.3594,-71.0587,"Constituent Call","(42.3594, -71.0587)"
101000299138,"07/08/2011 09:12:48 PM","08/07/2011 09:12:47 PM","07/27/2011 12:01:56 PM","ONTIME","Closed","Case Closed VIOCOR: Violation Corrected","Rodent Activity","Inspectional Services","Environmental Services","Rodent Activity","ISD_Environmental Services (INTERNAL)","ISD",NA,NA,"INTERSECTION of Hull St & Salem St  Boston  MA",3,"1B",1,"A1","Downtown / Financial District",3,"Ward 3",302,"","INTERSECTION Hull St & Salem St",NA,"Intersection",6397,42.3664,-71.0547,"Constituent Call","(42.3664, -71.0547)"
101000299283,"07/09/2011 07:00:43 PM","08/08/2011 07:00:40 PM","10/11/2011 11:41:08 AM","OVERDUE","Closed","Case Closed VIOCOR: Violation Corrected","Rodent Activity","Inspectional Services","Environmental Services","Rodent Activity","ISD_Environmental Services (INTERNAL)","ISD",NA,NA,"7 Carson St  Dorchester  MA  02125",7,"03",3,"C11","Dorchester",7,"Ward 13",1307,"R3","7 Carson St",2125,"Address",26179,42.3195,-71.0542,"Constituent Call","(42.3195, -71.0542)"
101000299546,"07/11/2011 08:55:20 AM","08/10/2011 08:55:20 AM","07/29/2011 10:35:09 AM","ONTIME","Closed","Case Closed NOVIO: No Violation Found/No Cause","Rodent Activity","Inspectional Services","Environmental Services","Rodent Activity","ISD_Environmental Services (INTERNAL)","ISD",NA,NA,"20 Imrie Rd  Allston  MA  02134",11,"04",9,"D14","Allston / Brighton",15,"Ward 21",2106,"R3","20 Imrie Rd",2134,"Address",78029,42.3519,-71.1387,"Constituent Call","(42.3519, -71.1387)"
101000299550,"07/11/2011 08:59:47 AM","08/10/2011 08:59:47 AM","05/25/2012 09:28:32 AM","OVERDUE","Closed","Case Closed VIOCOR: Violation Corrected","Rodent Activity","Inspectional Services","Environmental Services","Rodent Activity","ISD_Environmental Services (INTERNAL)","ISD",NA,NA,"8 Chase St  Dorchester  MA  02125",7,"03",2,"C11","Dorchester",5,"Ward 7",709,"R3","8 Chase St",2125,"Address",30071,42.3183,-71.06,"Constituent Call","(42.3183, -71.06)"
101000299830,"07/11/2011 02:28:32 PM","08/10/2011 02:28:32 PM","07/12/2011 10:38:45 AM","ONTIME","Closed","Case Closed NOVIO: No Violation Found/No Cause","Rodent Activity","Inspectional Services","Environmental Services","Rodent Activity","ISD_Environmental Services (INTERNAL)","ISD",NA,NA,"40 Tileston St  Boston  MA  02113",3,"1B",1,"A1","Downtown / Financial District",3,"Ward 3",302,"A","40 Tileston St",2113,"Address",319515,42.3658,-71.0544,"Constituent Call","(42.3658, -71.0544)"
101000299832,"07/11/2011 02:32:15 PM","08/10/2011 02:32:12 PM","07/29/2011 11:02:12 AM","ONTIME","Closed","Case Closed NOVIO: No Violation Found/No Cause","Rodent Activity","Inspectional Services","Environmental Services","Rodent Activity","ISD_Environmental Services (INTERNAL)","ISD",NA,NA,"31 N Beacon St  Allston  MA  02134",11,"04",9,"D14","Allston / Brighton",15,"Ward 22",2202,"A","31 N Beacon St",2134,"Address",12777,42.3539,-71.1388,"Constituent Call","(42.3539, -71.1388)"
101000299834,"07/11/2011 02:33:07 PM","08/10/2011 02:33:06 PM","07/18/2011 11:15:46 AM","ONTIME","Closed","Case Closed NOVIO: No Violation Found/No Cause","Rodent Activity","Inspectional Services","Environmental Services","Rodent Activity","ISD_Environmental Services (INTERNAL)","ISD",NA,NA,"78 Parsons St  Brighton  MA  02135",11,"04",9,"D14","Allston / Brighton",15,"Ward 22",2212,"R3","78 Parsons St",2135,"Address",108367,42.3529,-71.1545,"Constituent Call","(42.3529, -71.1545)"
101000300056,"07/12/2011 07:09:23 AM","08/11/2011 07:09:23 AM","09/20/2011 12:04:49 PM","OVERDUE","Closed","Case Closed VIOCOR: Violation Corrected","Rodent Activity","Inspectional Services","Environmental Services","Rodent Activity","ISD_Environmental Services (INTERNAL)","ISD",NA,NA,"209-211 Boylston St  Jamaica Plain  MA  02130",9,"02",6,"E13","Jamaica Plain",11,"Ward 11",1106,"R3","209-211 Boylston St",2130,"Address",162479,42.3138,-71.1013,"Constituent Call","(42.3138, -71.1013)"
101000300993,"07/13/2011 08:39:10 AM","08/12/2011 08:39:10 AM","08/03/2011 11:44:53 AM","ONTIME","Closed","Case Closed VIOCOR: Violation Corrected","Rodent Activity","Inspectional Services","Environmental Services","Rodent Activity","ISD_Environmental Services (INTERNAL)","ISD",NA,NA,"27 Worcester St  Roxbury  MA  02118",4,"1C",7,"D4","South End",6,"Ward 9",902,"CD","27 Worcester St",2118,"Address",152428,42.3383,-71.0763,"Constituent Call","(42.3383, -71.0763)"
101000300996,"07/13/2011 08:41:35 AM","08/12/2011 08:41:34 AM","07/27/2011 10:26:52 AM","ONTIME","Closed","Case Closed NOVIO: No Violation Found/No Cause","Rodent Activity","Inspectional Services","Environmental Services","Rodent Activity","ISD_Environmental Services (INTERNAL)","ISD",NA,NA,"21 Worcester St  Roxbury  MA  02118",4,"1C",7,"D4","South End",6,"Ward 9",902,"R3","21 Worcester St",2118,"Address",339183,42.3381,-71.0762,"Constituent Call","(42.3381, -71.0762)"
101000300998,"07/13/2011 08:45:44 AM","08/12/2011 08:45:41 AM","07/27/2011 11:23:28 AM","ONTIME","Closed","Case Closed NOVIO: No Violation Found/No Cause","Rodent Activity","Inspectional Services","Environmental Services","Rodent Activity","ISD_Environmental Services (INTERNAL)","ISD",NA,NA,"38 Langley Rd  Brighton  MA  02135",11,"04",9,"D14","Allston / Brighton",15,"Ward 22",2207,"R2","38 Langley Rd",2135,"Address",262828,42.3498,-71.1663,"Constituent Call","(42.3498, -71.1663)"
101000301002,"07/13/2011 08:49:00 AM","08/12/2011 08:49:00 AM","08/01/2011 11:06:08 AM","ONTIME","Closed","Case Closed NOVIO: No Violation Found/No Cause","Rodent Activity","Inspectional Services","Environmental Services","Rodent Activity","ISD_Environmental Services (INTERNAL)","ISD",NA,NA,"201 Hancock St  Dorchester  MA  02122",7,"03",3,"C11","Dorchester",8,"Ward 15",1504,"R1","201 Hancock St",2122,"Address",68901,42.3102,-71.061,"Constituent Call","(42.3102, -71.061)"
101000301005,"07/13/2011 08:54:03 AM","08/12/2011 08:54:02 AM","05/25/2012 09:27:27 AM","OVERDUE","Closed","Case Closed VIOCOR: Violation Corrected","Rodent Activity","Inspectional Services","Environmental Services","Rodent Activity","ISD_Environmental Services (INTERNAL)","ISD",NA,NA,"38 Crescent Ave  Dorchester  MA  02125",7,"03",3,"C11","Dorchester",7,"Ward 13",1307,"R3","38 Crescent Ave",2125,"Address",44199,42.3191,-71.0548,"Constituent Call","(42.3191, -71.0548)"
101000301027,"07/13/2011 09:23:15 AM","08/12/2011 09:23:15 AM","07/18/2011 11:21:30 AM","ONTIME","Closed","Case Closed NOVIO: No Violation Found/No Cause","Rodent Activity","Inspectional Services","Environmental Services","Rodent Activity","ISD_Environmental Services (INTERNAL)","ISD",NA,NA,"175 Sydney St  Dorchester  MA  02125",7,"03",3,"C11","Dorchester",7,"Ward 13",1310,"R2","175 Sydney St",2125,"Address",133273,42.3175,-71.0524,"Constituent Call","(42.3175, -71.0524)"
101000301075,"07/13/2011 10:06:11 AM","08/12/2011 10:06:11 AM","07/29/2011 10:48:59 AM","ONTIME","Closed","Case Closed VIOISS: Violation Filed","Rodent Activity","Inspectional Services","Environmental Services","Rodent Activity","ISD_Environmental Services (INTERNAL)","ISD",NA,NA,"1072 Saratoga St  East Boston  MA  02128",1,"09",1,"A7","East Boston",1,"Ward 1",112,"R3","1072 Saratoga St",2128,"Address",122418,42.3858,-71.0037,"Constituent Call","(42.3858, -71.0037)"
101000301118,"07/13/2011 10:48:03 AM","08/12/2011 10:47:00 AM","07/14/2011 10:33:34 AM","ONTIME","Closed","Case Closed ADCLSD: Administratively Closed","Rodent Activity","Inspectional Services","Environmental Services","Rodent Activity","ISD_Environmental Services (INTERNAL)","ISD",NA,NA,"1010-1010 Massachusetts Ave  Roxbury  MA  02118",6,"1C",7,"C6","South Boston / South Boston Waterfront",13,"08",806,"E","1010-1010 Massachusetts Ave",2118,"Address",157914,42.3279,-71.0673,"Constituent Call","(42.3279, -71.0673)"
101000301131,"07/13/2011 11:02:51 AM","08/12/2011 11:02:50 AM","07/18/2011 11:19:34 AM","ONTIME","Closed","Case Closed NOVIO: No Violation Found/No Cause","Rodent Activity","Inspectional Services","Environmental Services","Rodent Activity","ISD_Environmental Services (INTERNAL)","ISD",NA,NA,"49 Harriet St  Brighton  MA  02135",11,"04",9,"D14","Allston / Brighton",15,"Ward 22",2212,"R2","49 Harriet St",2135,"Address",69656,42.3535,-71.1567,"Constituent Call","(42.3535, -71.1567)"
101000301335,"07/13/2011 05:01:22 PM","08/12/2011 05:01:22 PM","07/29/2011 10:37:24 AM","ONTIME","Closed","Case Closed NOVIO: No Violation Found/No Cause","Rodent Activity","Inspectional Services","Environmental Services","Rodent Activity","ISD_Environmental Services (INTERNAL)","ISD",NA,NA,"147-151 Massachusetts Ave  Boston  MA  02115",4,"10A",8,"D4","Back Bay",14,"04",406,"RC","147-151 Massachusetts Ave",2115,"Address",91973,42.3467,-71.0877,"Constituent Call","(42.3467, -71.0877)"
101000301400,"07/14/2011 07:09:47 AM","08/13/2011 07:09:47 AM","07/27/2011 11:15:16 AM","ONTIME","Closed","Case Closed VIOISS: Violation Filed","Rodent Activity","Inspectional Services","Environmental Services","Rodent Activity","ISD_Environmental Services (INTERNAL)","ISD",NA,NA,"",NA,"",NA,"","",NA,"",NA,"","",NA,"",NA,42.3594,-71.0587,"Constituent Call","(42.3594, -71.0587)"
101000301401,"07/14/2011 07:12:52 AM","08/13/2011 07:12:52 AM","07/29/2011 10:54:22 AM","ONTIME","Closed","Case Closed NOVIO: No Violation Found/No Cause","Rodent Activity","Inspectional Services","Environmental Services","Rodent Activity","ISD_Environmental Services (INTERNAL)","ISD",NA,NA,"24 Mount Ida Rd  Dorchester  MA  02122",7,"03",3,"C11","Dorchester",8,"Ward 15",1503,"R3","24 Mount Ida Rd",2122,"Address",98314,42.3064,-71.0649,"Constituent Call","(42.3064, -71.0649)"
101000301403,"07/14/2011 07:14:17 AM","08/13/2011 07:14:16 AM","07/18/2011 10:50:33 AM","ONTIME","Closed","Case Closed NOVIO: No Violation Found/No Cause","Rodent Activity","Inspectional Services","Environmental Services","Rodent Activity","ISD_Environmental Services (INTERNAL)","ISD",NA,NA,"37 Beacon St  Boston  MA  02108",3,"1B",8,"A1","Beacon Hill",14,"Ward 5",503,"CM","37 Beacon St",2108,"Address",11266,42.3572,-71.0657,"Constituent Call","(42.3572, -71.0657)"
101000301404,"07/14/2011 07:16:09 AM","08/13/2011 07:16:08 AM","07/18/2011 11:18:42 AM","ONTIME","Closed","Case Closed NOVIO: No Violation Found/No Cause","Rodent Activity","Inspectional Services","Environmental Services","Rodent Activity","ISD_Environmental Services (INTERNAL)","ISD",NA,NA,"36R Higgins St  Allston  MA  02134",11,"04",9,"D14","Allston / Brighton",15,"Ward 21",2106,"R1","36R Higgins St",2134,"Address",73271,42.3522,-71.1359,"Constituent Call","(42.3522, -71.1359)"
101000301662,"07/14/2011 11:17:13 AM","08/13/2011 11:17:12 AM","07/29/2011 11:03:55 AM","ONTIME","Closed","Case Closed NOVIO: No Violation Found/No Cause","Rodent Activity","Inspectional Services","Environmental Services","Rodent Activity","ISD_Environmental Services (INTERNAL)","ISD",NA,NA,"84 Englewood Ave  Brighton  MA  02135",11,"04",9,"D14","Allston / Brighton",15,"Ward 21",2114,"R2","84 Englewood Ave",2135,"Address",54104,42.3376,-71.1492,"Constituent Call","(42.3376, -71.1492)"
101000301923,"07/14/2011 10:48:27 PM","08/13/2011 10:48:27 PM","07/18/2011 10:52:55 AM","ONTIME","Closed","Case Closed NOVIO: No Violation Found/No Cause","Rodent Activity","Inspectional Services","Environmental Services","Rodent Activity","ISD_Environmental Services (INTERNAL)","ISD",NA,NA,"",NA,"",NA,"","",NA,"",NA,"","",NA,"",NA,42.3594,-71.0587,"Constituent Call","(42.3594, -71.0587)"
101000301946,"07/15/2011 07:00:01 AM","08/14/2011 07:00:00 AM","10/27/2011 11:19:19 AM","OVERDUE","Closed","Case Closed VIOCOR: Violation Corrected","Rodent Activity","Inspectional Services","Environmental Services","Rodent Activity","ISD_Environmental Services (INTERNAL)","ISD",NA,NA,"28 Mount Ida Rd  Dorchester  MA  02122",7,"03",3,"C11","Dorchester",8,"Ward 15",1503,"R3","28 Mount Ida Rd",2122,"Address",98317,42.3063,-71.0649,"Constituent Call","(42.3063, -71.0649)"
101000301972,"07/15/2011 08:21:48 AM","08/14/2011 08:21:48 AM","08/10/2011 10:49:41 AM","ONTIME","Closed","Case Closed VIOISS: Violation Filed","Rodent Activity","Inspectional Services","Environmental Services","Rodent Activity","ISD_Environmental Services (INTERNAL)","ISD",NA,NA,"27 Higgins St  Allston  MA  02134",11,"04",9,"D14","Allston / Brighton",15,"Ward 21",2106,"R3","27 Higgins St",2134,"Address",73267,42.3525,-71.1357,"Constituent Call","(42.3525, -71.1357)"
101000302058,"07/15/2011 09:51:44 AM","08/14/2011 09:51:44 AM","07/27/2011 11:14:12 AM","ONTIME","Closed","Case Closed NOVIO: No Violation Found/No Cause","Rodent Activity","Inspectional Services","Environmental Services","Rodent Activity","ISD_Environmental Services (INTERNAL)","ISD",NA,NA,"",NA,"",NA,"","",NA,"",NA,"","",NA,"",NA,42.3594,-71.0587,"Constituent Call","(42.3594, -71.0587)"
101000302119,"07/15/2011 10:57:33 AM","08/14/2011 10:57:33 AM","08/03/2011 11:39:29 AM","ONTIME","Closed","Case Closed NOVIO: No Violation Found/No Cause","Rodent Activity","Inspectional Services","Environmental Services","Rodent Activity","ISD_Environmental Services (INTERNAL)","ISD",NA,NA,"29 Brookvale St  Dorchester  MA  02124",8,"07",3,"C11","Dorchester",7,"Ward 16",1611,"R2","29 Brookvale St",2124,"Address",198432,42.2793,-71.0648,"Constituent Call","(42.2793, -71.0648)"
101000302125,"07/15/2011 11:02:58 AM","08/14/2011 11:02:58 AM","08/08/2011 08:45:26 AM","ONTIME","Closed","Case Closed VIOISS: Violation Filed","Rodent Activity","Inspectional Services","Environmental Services","Rodent Activity","ISD_Environmental Services (INTERNAL)","ISD",NA,NA,"366 Washington St  Brighton  MA  02135",11,"04",9,"D14","Allston / Brighton",15,"Ward 22",2203,"C","366 Washington St",2135,"Address",157837,42.349,-71.1537,"Constituent Call","(42.349, -71.1537)"
101000302159,"07/15/2011 11:44:51 AM","08/14/2011 11:44:51 AM","09/20/2011 12:00:22 PM","OVERDUE","Closed","Case Closed VIOCOR: Violation Corrected","Rodent Activity","Inspectional Services","Environmental Services","Rodent Activity","ISD_Environmental Services (INTERNAL)","ISD",NA,NA,"40 Rugg Rd  Allston  MA  02134",11,"04",9,"D14","Allston / Brighton",15,"Ward 22",2202,"C","40 Rugg Rd",2134,"Address",119447,42.3558,-71.1356,"Constituent Call","(42.3558, -71.1356)"
101000302162,"07/15/2011 11:47:02 AM","08/14/2011 11:47:02 AM","08/08/2011 08:35:59 AM","ONTIME","Closed","Case Closed VIOCOR: Violation Corrected","Rodent Activity","Inspectional Services","Environmental Services","Rodent Activity","ISD_Environmental Services (INTERNAL)","ISD",NA,NA,"",NA,"",NA,"","",NA,"",NA,"","",NA,"",NA,42.3594,-71.0587,"Constituent Call","(42.3594, -71.0587)"
101000302208,"07/15/2011 01:19:01 PM","08/14/2011 01:19:00 PM","07/27/2011 12:13:22 PM","ONTIME","Closed","Case Closed NOVIO: No Violation Found/No Cause","Rodent Activity","Inspectional Services","Environmental Services","Rodent Activity","ISD_Environmental Services (INTERNAL)","ISD",NA,NA,"12 Ainsworth St  Roslindale  MA  02131",9,"06",6,"E5","Roslindale",10,"Ward 20",2007,"R3","12 Ainsworth St",2131,"Address",1231,42.2881,-71.14,"Constituent Call","(42.2881, -71.14)"
101000302221,"07/15/2011 01:42:54 PM","08/14/2011 01:42:54 PM","01/04/2012 10:18:38 AM","OVERDUE","Closed","Case Closed NOVIO: No Violation Found/No Cause","Rodent Activity","Inspectional Services","Environmental Services","Rodent Activity","ISD_Environmental Services (INTERNAL)","ISD",NA,NA,"92 Lyndhurst St  Dorchester  MA  02124",8,"07",4,"C11","Dorchester",8,"Ward 17",1706,"E","92 Lyndhurst St",2124,"Address",87909,42.2937,-71.0676,"Constituent Call","(42.2937, -71.0676)"
101000302250,"07/15/2011 02:46:09 PM","08/14/2011 02:46:09 PM","08/08/2011 09:40:24 AM","ONTIME","Closed","Case Closed VIOCOR: Violation Corrected","Rodent Activity","Inspectional Services","Environmental Services","Rodent Activity","ISD_Environmental Services (INTERNAL)","ISD",NA,NA,"92 Lyndhurst St  Dorchester  MA  02124",8,"07",4,"C11","Dorchester",8,"Ward 17",1706,"E","92 Lyndhurst St",2124,"Address",87909,42.2937,-71.0676,"Constituent Call","(42.2937, -71.0676)"
101000302475,"07/16/2011 04:50:09 PM","08/15/2011 04:50:08 PM","07/29/2011 10:10:37 AM","ONTIME","Closed","Case Closed NOVIO: No Violation Found/No Cause","Rodent Activity","Inspectional Services","Environmental Services","Rodent Activity","ISD_Environmental Services (INTERNAL)","ISD",NA,NA,"360 Marlborough St  Boston  MA  02115",4,"1C",8,"D4","Back Bay",14,"Ward 5",509,"CM","360 Marlborough St",2115,"Address",91063,42.3506,-71.0863,"Constituent Call","(42.3506, -71.0863)"
101000302661,"07/17/2011 10:57:21 PM","08/16/2011 10:57:21 PM","12/01/2011 11:26:42 AM","OVERDUE","Closed","Case Closed VIOCOR: Violation Corrected","Rodent Activity","Inspectional Services","Environmental Services","Rodent Activity","ISD_Environmental Services (INTERNAL)","ISD",NA,NA,"124 Glenville Ave  Allston  MA  02134",11,"04",9,"D14","Allston / Brighton",15,"Ward 21",2107,"R4","124 Glenville Ave",2134,"Address",64551,42.3489,-71.1368,"Constituent Call","(42.3489, -71.1368)"
101000302739,"07/18/2011 08:51:31 AM","08/17/2011 08:51:31 AM","07/29/2011 10:42:09 AM","ONTIME","Closed","Case Closed VIOCOR: Violation Corrected","Rodent Activity","Inspectional Services","Environmental Services","Rodent Activity","ISD_Environmental Services (INTERNAL)","ISD",NA,NA,"140 W Newton St  Roxbury  MA  02118",4,"1C",7,"D4","South End",6,"Ward 4",404,"R2","140 W Newton St",2118,"Address",102406,42.3421,-71.0776,"Constituent Call","(42.3421, -71.0776)"
101000302844,"07/18/2011 09:44:48 AM","08/17/2011 09:44:48 AM","07/27/2011 12:05:59 PM","ONTIME","Closed","Case Closed NOVIO: No Violation Found/No Cause","Rodent Activity","Inspectional Services","Environmental Services","Rodent Activity","ISD_Environmental Services (INTERNAL)","ISD",NA,NA,"",NA,"",NA,"","",NA,"",NA,"","",NA,"",NA,42.3594,-71.0587,"Constituent Call","(42.3594, -71.0587)"
101000303046,"07/18/2011 01:46:46 PM","08/17/2011 01:46:45 PM","09/23/2011 09:42:05 AM","OVERDUE","Closed","Case Closed VIOCOR: Violation Corrected","Rodent Activity","Inspectional Services","Environmental Services","Rodent Activity","ISD_Environmental Services (INTERNAL)","ISD",NA,NA,"349 Baker St  West Roxbury  MA  02132",12,"06",6,"E5","West Roxbury",12,"Ward 20",2005,"R2","349 Baker St",2132,"Address",7712,42.2815,-71.1685,"Constituent Call","(42.2815, -71.1685)"
101000303052,"07/18/2011 01:48:49 PM","08/17/2011 01:48:48 PM","07/27/2011 12:08:52 PM","ONTIME","Closed","Case Closed VIOISS: Violation Filed","Rodent Activity","Inspectional Services","Environmental Services","Rodent Activity","ISD_Environmental Services (INTERNAL)","ISD",NA,NA,"4 Oxford Pl  Boston  MA  02111",4,"1C",2,"A1","Downtown / Financial District",4,"Ward 3",308,"R4","4 Oxford Pl",2111,"Address",106194,42.352,-71.0609,"Constituent Call","(42.352, -71.0609)"
101000303056,"07/18/2011 01:51:29 PM","08/17/2011 01:51:28 PM","08/08/2011 09:42:48 AM","ONTIME","Closed","Case Closed VIOCOR: Violation Corrected","Rodent Activity","Inspectional Services","Environmental Services","Rodent Activity","ISD_Environmental Services (INTERNAL)","ISD",NA,NA,"5 Garden Court St  Boston  MA  02113",3,"1B",1,"A1","Downtown / Financial District",3,"Ward 3",303,"R4","5 Garden Court St",2113,"Address",62544,42.3644,-71.0534,"Constituent Call","(42.3644, -71.0534)"
101000303058,"07/18/2011 01:53:06 PM","08/17/2011 01:53:06 PM","09/07/2011 09:06:32 AM","OVERDUE","Closed","Case Closed VIOCOR: Violation Corrected","Rodent Activity","Inspectional Services","Environmental Services","Rodent Activity","ISD_Environmental Services (INTERNAL)","ISD",NA,NA,"15 Salcombe St  Dorchester  MA  02125",7,"03",3,"C11","Dorchester",7,"Ward 13",1306,"R3","15 Salcombe St",2125,"Address",121675,42.3147,-71.0615,"Constituent Call","(42.3147, -71.0615)"
101000303061,"07/18/2011 01:54:11 PM","08/17/2011 01:54:10 PM","07/27/2011 09:08:50 AM","ONTIME","Closed","Case Closed VIOCOR: Violation Corrected","Rodent Activity","Inspectional Services","Environmental Services","Rodent Activity","ISD_Environmental Services (INTERNAL)","ISD",NA,NA,"8 Elizabeth St  Mattapan  MA  02126",8,"07",4,"B3","Greater Mattapan",9,"Ward 14",1405,"R3","8 Elizabeth St",2126,"Address",52771,42.28,-71.0878,"Constituent Call","(42.28, -71.0878)"
101000303131,"07/18/2011 03:07:56 PM","08/17/2011 03:07:56 PM","07/29/2011 10:19:54 AM","ONTIME","Closed","Case Closed VIOCOR: Violation Corrected","Rodent Activity","Inspectional Services","Environmental Services","Rodent Activity","ISD_Environmental Services (INTERNAL)","ISD",NA,NA,"7 Chestnut St  Boston  MA  02108",3,"1B",8,"A1","Beacon Hill",14,"Ward 5",503,"E","7 Chestnut St",2108,"Address",31462,42.3579,-71.0665,"Constituent Call","(42.3579, -71.0665)"
101000303149,"07/18/2011 03:33:27 PM","08/17/2011 03:33:26 PM","08/08/2011 09:41:44 AM","ONTIME","Closed","Case Closed VIOCOR: Violation Corrected","Rodent Activity","Inspectional Services","Environmental Services","Rodent Activity","ISD_Environmental Services (INTERNAL)","ISD",NA,NA,"59 Hull St  Boston  MA  02113",3,"1B",1,"A1","Downtown / Financial District",3,"Ward 3",302,"A","59 Hull St",2113,"Address",75938,42.3674,-71.0568,"Constituent Call","(42.3674, -71.0568)"
101000303270,"07/18/2011 10:42:05 PM","08/17/2011 10:42:05 PM","08/08/2011 09:57:03 AM","ONTIME","Closed","Case Closed VIOCOR: Violation Corrected","Rodent Activity","Inspectional Services","Environmental Services","Rodent Activity","ISD_Environmental Services (INTERNAL)","ISD",NA,NA,"16-4 Bromfield St  Boston  MA  02108",3,"1C",1,"A1","Downtown / Financial District",3,"03",306,"C","16-4 Bromfield St",2108,"Address",21780,42.3565,-71.06,"Constituent Call","(42.3565, -71.06)"
101000303375,"07/19/2011 09:21:54 AM","08/18/2011 09:21:54 AM","07/27/2011 11:29:49 AM","ONTIME","Closed","Case Closed VIOCOR: Violation Corrected","Rodent Activity","Inspectional Services","Environmental Services","Rodent Activity","ISD_Environmental Services (INTERNAL)","ISD",NA,NA,"155 Kilsyth Rd  Brighton  MA  02135",11,"04",9,"D14","Allston / Brighton",15,"Ward 21",2114,"R4","155 Kilsyth Rd",2135,"Address",81624,42.3387,-71.1468,"Constituent Call","(42.3387, -71.1468)"
101000303420,"07/19/2011 10:15:30 AM","08/18/2011 10:15:30 AM","07/27/2011 11:31:57 AM","ONTIME","Closed","Case Closed NOVIO: No Violation Found/No Cause","Rodent Activity","Inspectional Services","Environmental Services","Rodent Activity","ISD_Environmental Services (INTERNAL)","ISD",NA,NA,"145 Harvard Ave  Allston  MA  02134",11,"04",9,"D14","Allston / Brighton",15,"Ward 21",2105,"C","145 Harvard Ave",2134,"Address",160944,42.3521,-71.1321,"Constituent Call","(42.3521, -71.1321)"
101000303421,"07/19/2011 10:16:35 AM","08/18/2011 10:16:35 AM","08/03/2011 12:10:37 PM","ONTIME","Closed","Case Closed VIOCOR: Violation Corrected","Rodent Activity","Inspectional Services","Environmental Services","Rodent Activity","ISD_Environmental Services (INTERNAL)","ISD",NA,NA,"10 Shepard St  Brighton  MA  02135",11,"04",9,"D14","Allston / Brighton",15,"Ward 22",2203,"R3","10 Shepard St",2135,"Address",310748,42.3477,-71.1499,"Constituent Call","(42.3477, -71.1499)"
101000303425,"07/19/2011 10:19:55 AM","08/18/2011 10:19:54 AM","07/27/2011 11:45:33 AM","ONTIME","Closed","Case Closed VIOISS: Violation Filed","Rodent Activity","Inspectional Services","Environmental Services","Rodent Activity","ISD_Environmental Services (INTERNAL)","ISD",NA,NA,"135 Neponset Ave  Dorchester  MA  02122",8,"07",3,"C11","Dorchester",7,"Ward 16",1605,"CM","135 Neponset Ave",2122,"Address",100740,42.2938,-71.052,"Constituent Call","(42.2938, -71.052)"
101000303441,"07/19/2011 10:24:50 AM","08/18/2011 10:24:50 AM","12/19/2011 02:47:55 PM","OVERDUE","Closed","Case Closed VIOCOR: Violation Corrected","Rodent Activity","Inspectional Services","Environmental Services","Rodent Activity","ISD_Environmental Services (INTERNAL)","ISD",NA,NA,"11 Oxford Pl  Boston  MA  02111",4,"1C",2,"A1","Downtown / Financial District",4,"Ward 3",308,"R3","11 Oxford Pl",2111,"Address",106193,42.3517,-71.0608,"Constituent Call","(42.3517, -71.0608)"
101000303455,"07/19/2011 10:27:55 AM","08/18/2011 10:27:55 AM","12/19/2011 02:49:46 PM","OVERDUE","Closed","Case Closed VIOCOR: Violation Corrected","Rodent Activity","Inspectional Services","Environmental Services","Rodent Activity","ISD_Environmental Services (INTERNAL)","ISD",NA,NA,"7 Oxford Pl  Boston  MA  02111",4,"1C",2,"A1","Downtown / Financial District",4,"Ward 3",308,"R4","7 Oxford Pl",2111,"Address",106197,42.3518,-71.0608,"Constituent Call","(42.3518, -71.0608)"
101000303461,"07/19/2011 10:31:03 AM","08/18/2011 10:31:03 AM","07/17/2012 09:28:06 AM","OVERDUE","Closed","Case Closed NOVIO: No Violation Found/No Cause","Rodent Activity","Inspectional Services","Environmental Services","Rodent Activity","ISD_Environmental Services (INTERNAL)","ISD",NA,NA,"121 Buttonwood St  Dorchester  MA  02125",6,"03",2,"C6","Dorchester",5,"Ward 7",708,"R2","121 Buttonwood St",2125,"Address",24396,42.3227,-71.0557,"Constituent Call","(42.3227, -71.0557)"
101000303574,"07/19/2011 01:06:55 PM","08/18/2011 01:06:55 PM","08/05/2011 09:32:32 AM","ONTIME","Closed","Case Closed VIOCOR: Violation Corrected","Rodent Activity","Inspectional Services","Environmental Services","Rodent Activity","ISD_Environmental Services (INTERNAL)","ISD",NA,NA,"8 Albion St  Roxbury  MA  02119",7,"03",7,"B2","Roxbury",13,"Ward 8",805,"R1","8 Albion St",2119,"Address",1720,42.322,-71.072,"Constituent Call","(42.322, -71.072)"
101000303613,"07/19/2011 01:59:54 PM","08/18/2011 01:59:54 PM","07/27/2011 12:06:56 PM","ONTIME","Closed","Case Closed NOVIO: No Violation Found/No Cause","Rodent Activity","Inspectional Services","Environmental Services","Rodent Activity","ISD_Environmental Services (INTERNAL)","ISD",NA,NA,"610 Columbus Ave  Roxbury  MA  02118",9,"10B",7,"D4","Roxbury",13,"Ward 9",903,"A","610 Columbus Ave",2118,"Address",36030,42.3397,-71.0825,"Constituent Call","(42.3397, -71.0825)"
101000303682,"07/19/2011 03:05:29 PM","08/18/2011 03:05:28 PM","08/05/2011 09:26:43 AM","ONTIME","Closed","Case Closed VIOCOR: Violation Corrected","Rodent Activity","Inspectional Services","Environmental Services","Rodent Activity","ISD_Environmental Services (INTERNAL)","ISD",NA,NA,"10 Albion St  Roxbury  MA  02119",7,"03",7,"B2","Roxbury",13,"Ward 8",805,"R2","10 Albion St",2119,"Address",1702,42.3221,-71.0718,"Constituent Call","(42.3221, -71.0718)"
101000303689,"07/19/2011 03:10:52 PM","08/18/2011 03:10:52 PM","07/29/2011 10:36:02 AM","ONTIME","Closed","Case Closed NOVIO: No Violation Found/No Cause","Rodent Activity","Inspectional Services","Environmental Services","Rodent Activity","ISD_Environmental Services (INTERNAL)","ISD",NA,NA,"32 Litchfield St  Brighton  MA  02135",11,"04",9,"D14","Allston / Brighton",15,"Ward 22",2205,"R3","32 Litchfield St",2135,"Address",265087,42.3591,-71.1415,"Constituent Call","(42.3591, -71.1415)"
101000303691,"07/19/2011 03:12:05 PM","08/18/2011 03:12:05 PM","08/08/2011 09:01:25 AM","ONTIME","Closed","Case Closed NOVIO: No Violation Found/No Cause","Rodent Activity","Inspectional Services","Environmental Services","Rodent Activity","ISD_Environmental Services (INTERNAL)","ISD",NA,NA,"3 Benson St  Brighton  MA  02135",11,"04",9,"D14","Allston / Brighton",15,"Ward 22",2205,"R3","3 Benson St",2135,"Address",187863,42.3594,-71.1405,"Constituent Call","(42.3594, -71.1405)"
101000303927,"07/20/2011 08:30:56 AM","08/19/2011 08:30:55 AM","07/20/2011 08:38:01 AM","ONTIME","Closed","Case Closed Case Invalid opened e-form in error.","Rodent Activity","Inspectional Services","Environmental Services","Rodent Activity","ISD_Environmental Services (INTERNAL)","ISD",NA,NA,"191 Marlborough St  Boston  MA  02116",4,"1C",8,"D4","Back Bay",14,"Ward 5",507,"A","191 Marlborough St",2116,"Address",269363,42.3526,-71.0804,"Constituent Call","(42.3526, -71.0804)"
101000304234,"07/20/2011 02:40:36 PM","08/19/2011 02:40:35 PM","08/03/2011 10:11:26 AM","ONTIME","Closed","Case Closed VIOCOR: Violation Corrected","Rodent Activity","Inspectional Services","Environmental Services","Rodent Activity","ISD_Environmental Services (INTERNAL)","ISD",NA,NA,"16 Chestnut St  Boston  MA  02108",3,"1B",8,"A1","Beacon Hill",14,"Ward 5",503,"R4","16 Chestnut St",2108,"Address",31348,42.3575,-71.0669,"Constituent Call","(42.3575, -71.0669)"
101000304266,"07/20/2011 03:14:03 PM","08/19/2011 03:14:03 PM","08/08/2011 08:46:22 AM","ONTIME","Closed","Case Closed NOVIO: No Violation Found/No Cause","Rodent Activity","Inspectional Services","Environmental Services","Rodent Activity","ISD_Environmental Services (INTERNAL)","ISD",NA,NA,"29-31 Dickinson Rd  Brighton  MA  02135",11,"04",9,"D14","Allston / Brighton",15,"Ward 22",2210,"R2","29-31 Dickinson Rd",2135,"Address",47743,42.3479,-71.1619,"Constituent Call","(42.3479, -71.1619)"
101000304329,"07/20/2011 05:30:39 PM","08/19/2011 05:30:38 PM","07/27/2011 10:03:05 AM","ONTIME","Closed","Case Closed NOVIO: No Violation Found/No Cause","Rodent Activity","Inspectional Services","Environmental Services","Rodent Activity","ISD_Environmental Services (INTERNAL)","ISD",NA,NA,"21 Worcester Sq  Roxbury  MA  02118",4,"1C",2,"D4","South End",6,"Ward 8",802,"CM","21 Worcester Sq",2118,"Address",155262,42.3364,-71.0748,"Constituent Call","(42.3364, -71.0748)"
101000304468,"07/21/2011 08:37:37 AM","08/20/2011 08:37:37 AM","09/23/2011 09:51:15 AM","OVERDUE","Closed","Case Closed VIOCOR: Violation Corrected","Rodent Activity","Inspectional Services","Environmental Services","Rodent Activity","ISD_Environmental Services (INTERNAL)","ISD",NA,NA,"126 Glenville Ave  Allston  MA  02134",11,"04",9,"D14","Allston / Brighton",15,"Ward 21",2107,"R3","126 Glenville Ave",2134,"Address",64553,42.349,-71.1369,"Constituent Call","(42.349, -71.1369)"
101000304476,"07/21/2011 08:54:46 AM","08/20/2011 08:54:46 AM","07/27/2011 10:35:02 AM","ONTIME","Closed","Case Closed VIOISS: Violation Filed","Rodent Activity","Inspectional Services","Environmental Services","Rodent Activity","ISD_Environmental Services (INTERNAL)","ISD",NA,NA,"",NA,"",NA,"","",NA,"",NA,"","",NA,"",NA,42.3594,-71.0587,"Constituent Call","(42.3594, -71.0587)"
101000304489,"07/21/2011 09:07:07 AM","08/20/2011 09:07:07 AM","12/01/2011 11:17:44 AM","OVERDUE","Closed","Case Closed VIOCOR: Violation Corrected","Rodent Activity","Inspectional Services","Environmental Services","Rodent Activity","ISD_Environmental Services (INTERNAL)","ISD",NA,NA,"80 Corey Rd  Brighton  MA  02135",11,"04",9,"D14","Allston / Brighton",15,"Ward 21",2112,"R3","80 Corey Rd",2135,"Address",42708,42.3408,-71.1425,"Constituent Call","(42.3408, -71.1425)"
101000304525,"07/21/2011 09:38:14 AM","08/20/2011 09:38:13 AM","09/23/2011 09:30:27 AM","OVERDUE","Closed","Case Closed VIOCOR: Violation Corrected","Rodent Activity","Inspectional Services","Environmental Services","Rodent Activity","ISD_Environmental Services (INTERNAL)","ISD",NA,NA,"157 Baker St  West Roxbury  MA  02132",12,"06",6,"E5","West Roxbury",12,"Ward 20",2016,"R1","157 Baker St",2132,"Address",7649,42.2749,-71.1668,"Constituent Call","(42.2749, -71.1668)"
101000304614,"07/21/2011 10:14:31 AM","08/20/2011 10:14:31 AM","07/27/2011 11:22:30 AM","ONTIME","Closed","Case Closed NOVIO: No Violation Found/No Cause","Rodent Activity","Inspectional Services","Environmental Services","Rodent Activity","ISD_Environmental Services (INTERNAL)","ISD",NA,NA,"",NA,"",NA,"","",NA,"",NA,"","",NA,"",NA,42.3594,-71.0587,"Constituent Call","(42.3594, -71.0587)"
101000304659,"07/21/2011 11:31:32 AM","08/20/2011 11:31:32 AM","07/27/2011 10:32:19 AM","ONTIME","Closed","Case Closed ROA: Refer to Other Agency/Division","Rodent Activity","Inspectional Services","Environmental Services","Rodent Activity","ISD_Environmental Services (INTERNAL)","ISD",NA,NA,"11A Melrose St  Boston  MA  02116",4,"1C",2,"A1","Back Bay",6,"Ward 5",501,"R4","11A Melrose St",2116,"Address",167590,42.3492,-71.0676,"Constituent Call","(42.3492, -71.0676)"
101000304662,"07/21/2011 11:33:42 AM","08/20/2011 11:33:42 AM","08/08/2011 08:52:37 AM","ONTIME","Closed","Case Closed VIOCOR: Violation Corrected","Rodent Activity","Inspectional Services","Environmental Services","Rodent Activity","ISD_Environmental Services (INTERNAL)","ISD",NA,NA,"22 Dighton St  Brighton  MA  02135",11,"04",9,"D14","Allston / Brighton",15,"Ward 22",2203,"R3","22 Dighton St",2135,"Address",224092,42.3484,-71.1548,"Constituent Call","(42.3484, -71.1548)"
101000304664,"07/21/2011 11:35:32 AM","08/20/2011 11:35:32 AM","07/27/2011 09:25:17 AM","ONTIME","Closed","Case Closed NOVIO: No Violation Found/No Cause","Rodent Activity","Inspectional Services","Environmental Services","Rodent Activity","ISD_Environmental Services (INTERNAL)","ISD",NA,NA,"728 Bennington St  East Boston  MA  02128",1,"09",1,"A7","East Boston",1,"Ward 1",113,"RC","728 Bennington St",2128,"Address",187775,42.3852,-71.0119,"Constituent Call","(42.3852, -71.0119)"
101000304666,"07/21/2011 11:37:15 AM","08/20/2011 11:37:15 AM","07/27/2011 11:09:50 AM","ONTIME","Closed","Case Closed NOVIO: No Violation Found/No Cause","Rodent Activity","Inspectional Services","Environmental Services","Rodent Activity","ISD_Environmental Services (INTERNAL)","ISD",NA,NA,"121 Corey Rd  Brighton  MA  02135",11,"04",9,"D14","Allston / Brighton",15,"21",2112,"E","121 Corey Rd",2135,"Address",42588,42.342,-71.1405,"Constituent Call","(42.342, -71.1405)"
101000304724,"07/21/2011 01:26:30 PM","08/20/2011 01:26:30 PM","07/27/2011 09:14:55 AM","ONTIME","Closed","Case Closed VIOCOR: Violation Corrected","Rodent Activity","Inspectional Services","Environmental Services","Rodent Activity","ISD_Environmental Services (INTERNAL)","ISD",NA,NA,"",NA,"",NA,"","",NA,"",NA,"","",NA,"",NA,42.3594,-71.0587,"Constituent Call","(42.3594, -71.0587)"
101000304725,"07/21/2011 01:29:36 PM","08/20/2011 01:29:36 PM","07/27/2011 11:21:24 AM","ONTIME","Closed","Case Closed VIOISS: Violation Filed","Rodent Activity","Inspectional Services","Environmental Services","Rodent Activity","ISD_Environmental Services (INTERNAL)","ISD",NA,NA,"",NA,"",NA,"","",NA,"",NA,"","",NA,"",NA,42.3594,-71.0587,"Constituent Call","(42.3594, -71.0587)"
101000304802,"07/21/2011 03:32:53 PM","08/20/2011 03:32:53 PM","07/27/2011 11:08:35 AM","ONTIME","Closed","Case Closed VIOISS: Violation Filed","Rodent Activity","Inspectional Services","Environmental Services","Rodent Activity","ISD_Environmental Services (INTERNAL)","ISD",NA,NA,"3 Symphony Rd  Boston  MA  02115",4,"10A",8,"D4","Fenway / Kenmore / Audubon Circle / Longwood",14,"Ward 4",407,"R4","3 Symphony Rd",2115,"Address",133481,42.3429,-71.0869,"Constituent Call","(42.3429, -71.0869)"
101000304803,"07/21/2011 03:34:21 PM","08/20/2011 03:34:21 PM","07/27/2011 09:26:25 AM","ONTIME","Closed","Case Closed NOVIO: No Violation Found/No Cause","Rodent Activity","Inspectional Services","Environmental Services","Rodent Activity","ISD_Environmental Services (INTERNAL)","ISD",NA,NA,"5 Symphony Rd  Boston  MA  02115",4,"10A",8,"D4","Fenway / Kenmore / Audubon Circle / Longwood",14,"Ward 4",407,"R4","5 Symphony Rd",2115,"Address",133517,42.3429,-71.0869,"Constituent Call","(42.3429, -71.0869)"
101000305043,"07/22/2011 10:06:40 AM","08/21/2011 10:06:39 AM","08/03/2011 10:29:52 AM","ONTIME","Closed","Case Closed NOVIO: No Violation Found/No Cause","Rodent Activity","Inspectional Services","Environmental Services","Rodent Activity","ISD_Environmental Services (INTERNAL)","ISD",NA,NA,"20 Barry St  Dorchester  MA  02125",7,"03",3,"C11","Dorchester",8,"Ward 15",1503,"R3","20 Barry St",2125,"Address",182332,42.3091,-71.0676,"Constituent Call","(42.3091, -71.0676)"
101000305148,"07/22/2011 01:53:15 PM","08/21/2011 01:53:15 PM","03/21/2012 09:10:19 AM","OVERDUE","Closed","Case Closed VIOCOR: Violation Corrected","Rodent Activity","Inspectional Services","Environmental Services","Rodent Activity","ISD_Environmental Services (INTERNAL)","ISD",NA,NA,"12 Grant St  Dorchester  MA  02125",7,"03",3,"C11","Dorchester",7,"Ward 13",1307,"R1","12 Grant St",2125,"Address",65932,42.3184,-71.0551,"Constituent Call","(42.3184, -71.0551)"
101000305253,"07/22/2011 06:57:07 PM","08/21/2011 06:57:07 PM","12/15/2014 04:50:38 PM","OVERDUE","Closed","Case Closed Case Noted No activity found. Case Closed","Rodent Activity","Inspectional Services","Environmental Services","Rodent Activity","ISD_Environmental Services (INTERNAL)","ISD",NA,NA,"",NA,"",NA,"","",NA,"",NA,"","",NA,"",NA,42.3594,-71.0587,"Constituent Call","(42.3594, -71.0587)"
101000305437,"07/23/2011 10:41:13 PM","08/22/2011 10:41:13 PM","08/03/2011 10:54:53 AM","ONTIME","Closed","Case Closed NOVIO: No Violation Found/No Cause","Rodent Activity","Inspectional Services","Environmental Services","Rodent Activity","ISD_Environmental Services (INTERNAL)","ISD",NA,NA,"528 Beacon St  Boston  MA  02215",4,"10A",8,"D4","Back Bay",14,"Ward 5",509,"A","528 Beacon St",2215,"Address",11908,42.3507,-71.091,"Constituent Call","(42.3507, -71.091)"
101000305615,"07/25/2011 07:06:23 AM","08/24/2011 07:06:23 AM","08/03/2011 10:06:12 AM","ONTIME","Closed","Case Closed VIOISS: Violation Filed","Rodent Activity","Inspectional Services","Environmental Services","Rodent Activity","ISD_Environmental Services (INTERNAL)","ISD",NA,NA,"50 Dalton St  Boston  MA  02115",4,"1C",8,"D4","Back Bay",14,"Ward 4",406,"C","50 Dalton St",2115,"Address",45832,42.3471,-71.0856,"Constituent Call","(42.3471, -71.0856)"
101000305660,"07/25/2011 08:51:58 AM","08/24/2011 08:51:58 AM","08/11/2011 08:54:51 AM","ONTIME","Closed","Case Closed VIOCOR: Violation Corrected","Rodent Activity","Inspectional Services","Environmental Services","Rodent Activity","ISD_Environmental Services (INTERNAL)","ISD",NA,NA,"11 Salcombe St  Dorchester  MA  02125",7,"03",3,"C11","Dorchester",7,"Ward 13",1306,"R3","11 Salcombe St",2125,"Address",121673,42.3148,-71.0614,"Constituent Call","(42.3148, -71.0614)"
101000305892,"07/25/2011 12:47:36 PM","08/24/2011 12:47:35 PM","08/03/2011 10:20:28 AM","ONTIME","Closed","Case Closed VIOCOR: Violation Corrected","Rodent Activity","Inspectional Services","Environmental Services","Rodent Activity","ISD_Environmental Services (INTERNAL)","ISD",NA,NA,"256 Marlborough St  Boston  MA  02116",4,"1C",8,"D4","Back Bay",14,"Ward 5",508,"R4","256 Marlborough St",2116,"Address",90778,42.3516,-71.0824,"Constituent Call","(42.3516, -71.0824)"
101000305906,"07/25/2011 01:01:52 PM","08/24/2011 01:01:52 PM","09/02/2011 09:38:49 AM","OVERDUE","Closed","Case Closed VIOISS: Violation Filed","Rodent Activity","Inspectional Services","Environmental Services","Rodent Activity","ISD_Environmental Services (INTERNAL)","ISD",NA,NA,"145 Endicott St  Boston  MA  02113",3,"1B",1,"A1","Downtown / Financial District",3,"Ward 3",304,"RC","145 Endicott St",2113,"Address",230471,42.365,-71.0572,"Constituent Call","(42.365, -71.0572)"
101000305968,"07/25/2011 02:37:21 PM","08/24/2011 02:37:20 PM","02/02/2012 11:39:07 AM","OVERDUE","Closed","Case Closed VIOCOR: Violation Corrected","Rodent Activity","Inspectional Services","Environmental Services","Rodent Activity","ISD_Environmental Services (INTERNAL)","ISD",NA,NA,"15 Higgins St  Allston  MA  02134",11,"04",9,"D14","Allston / Brighton",15,"Ward 21",2106,"R4","15 Higgins St",2134,"Address",251505,42.3528,-71.136,"Constituent Call","(42.3528, -71.136)"
101000305978,"07/25/2011 02:47:52 PM","08/24/2011 02:47:52 PM","01/19/2012 10:36:17 AM","OVERDUE","Closed","Case Closed NOVIO: No Violation Found/No Cause","Rodent Activity","Inspectional Services","Environmental Services","Rodent Activity","ISD_Environmental Services (INTERNAL)","ISD",NA,NA,"159 Howard Ave  Dorchester  MA  02125",7,"03",7,"B2","Roxbury",13,"Ward 13",1301,"R3","159 Howard Ave",2125,"Address",75514,42.3148,-71.0755,"Constituent Call","(42.3148, -71.0755)"
101000305983,"07/25/2011 02:49:59 PM","08/24/2011 02:49:58 PM","07/29/2011 10:31:28 AM","ONTIME","Closed","Case Closed NOVIO: No Violation Found/No Cause","Rodent Activity","Inspectional Services","Environmental Services","Rodent Activity","ISD_Environmental Services (INTERNAL)","ISD",NA,NA,"29 Fayette St  Boston  MA  02116",4,"1C",2,"A1","Back Bay",6,"Ward 5",501,"CM","29 Fayette St",2116,"Address",56997,42.3489,-71.0676,"Constituent Call","(42.3489, -71.0676)"
101000305984,"07/25/2011 02:51:51 PM","08/24/2011 02:51:51 PM","08/08/2011 09:00:22 AM","ONTIME","Closed","Case Closed NOVIO: No Violation Found/No Cause","Rodent Activity","Inspectional Services","Environmental Services","Rodent Activity","ISD_Environmental Services (INTERNAL)","ISD",NA,NA,"210 Everett St  Brighton  MA  02135",11,"04",9,"D14","Allston / Brighton",15,"Ward 22",2202,"EA","210 Everett St",2135,"Address",231675,42.3606,-71.1368,"Constituent Call","(42.3606, -71.1368)"
101000305991,"07/25/2011 02:56:39 PM","08/24/2011 02:56:39 PM","08/03/2011 10:37:15 AM","ONTIME","Closed","Case Closed VIOCOR: Violation Corrected","Rodent Activity","Inspectional Services","Environmental Services","Rodent Activity","ISD_Environmental Services (INTERNAL)","ISD",NA,NA,"6 Claremont Park  Roxbury  MA  02118",4,"1C",7,"D4","South End",6,"Ward 4",404,"R4","6 Claremont Park",2118,"Address",33088,42.3419,-71.0811,"Constituent Call","(42.3419, -71.0811)"
101000306068,"07/25/2011 05:09:15 PM","08/24/2011 05:09:15 PM","09/14/2011 11:24:25 AM","OVERDUE","Closed","Case Closed VIOCOR: Violation Corrected","Rodent Activity","Inspectional Services","Environmental Services","Rodent Activity","ISD_Environmental Services (INTERNAL)","ISD",NA,NA,"",NA,"",NA,"","",NA,"",NA,"","",NA,"",NA,42.3594,-71.0587,"Constituent Call","(42.3594, -71.0587)"
101000306333,"07/26/2011 10:16:07 AM","08/25/2011 10:16:07 AM","07/29/2011 10:07:54 AM","ONTIME","Closed","Case Closed NOVIO: No Violation Found/No Cause","Rodent Activity","Inspectional Services","Environmental Services","Rodent Activity","ISD_Environmental Services (INTERNAL)","ISD",NA,NA,"98 Forest Hills St  Jamaica Plain  MA  02130",9,"02",6,"E13","Jamaica Plain",11,"Ward 11",1107,"R3","98 Forest Hills St",2130,"Address",59495,42.309,-71.1022,"Constituent Call","(42.309, -71.1022)"
101000306522,"07/26/2011 02:05:56 PM","08/25/2011 02:05:56 PM","08/18/2011 09:41:44 AM","ONTIME","Closed","Case Closed VIOCOR: Violation Corrected","Rodent Activity","Inspectional Services","Environmental Services","Rodent Activity","ISD_Environmental Services (INTERNAL)","ISD",NA,NA,"146 Commonwealth Ave  Boston  MA  02116",4,"1C",8,"D4","Back Bay",14,"Ward 5",507,"E","146 Commonwealth Ave",2116,"Address",37681,42.3516,-71.0776,"Constituent Call","(42.3516, -71.0776)"
101000306525,"07/26/2011 02:10:08 PM","08/25/2011 02:10:08 PM","08/03/2011 10:18:16 AM","ONTIME","Closed","Case Closed VIOCOR: Violation Corrected","Rodent Activity","Inspectional Services","Environmental Services","Rodent Activity","ISD_Environmental Services (INTERNAL)","ISD",NA,NA,"",NA,"",NA,"","",NA,"",NA,"","",NA,"",NA,42.3594,-71.0587,"Constituent Call","(42.3594, -71.0587)"
101000306679,"07/26/2011 06:45:06 PM","08/25/2011 06:45:05 PM","08/08/2011 08:54:44 AM","ONTIME","Closed","Case Closed NOVIO: No Violation Found/No Cause","Rodent Activity","Inspectional Services","Environmental Services","Rodent Activity","ISD_Environmental Services (INTERNAL)","ISD",NA,NA,"71 Richview St  Dorchester  MA  02124",8,"07",3,"C11","Dorchester",7,"Ward 16",1611,"R1","71 Richview St",2124,"Address",115851,42.2777,-71.0606,"Constituent Call","(42.2777, -71.0606)"
101000306723,"07/27/2011 07:09:58 AM","08/26/2011 07:09:58 AM","08/03/2011 10:58:49 AM","ONTIME","Closed","Case Closed NOVIO: No Violation Found/No Cause","Rodent Activity","Inspectional Services","Environmental Services","Rodent Activity","ISD_Environmental Services (INTERNAL)","ISD",NA,NA,"142 Marlborough St  Boston  MA  02116",4,"1C",8,"D4","Back Bay",14,"Ward 5",507,"R4","142 Marlborough St",2116,"Address",90464,42.3528,-71.078,"Constituent Call","(42.3528, -71.078)"
101000306728,"07/27/2011 07:18:27 AM","08/26/2011 07:18:27 AM","08/23/2011 12:09:34 PM","ONTIME","Closed","Case Closed VIOCOR: Violation Corrected","Rodent Activity","Inspectional Services","Environmental Services","Rodent Activity","ISD_Environmental Services (INTERNAL)","ISD",NA,NA,"26 Norfolk St  Dorchester  MA  02124",8,"07",4,"B3","Dorchester",9,"Ward 17",1708,"RC","26 Norfolk St",2124,"Address",103247,42.2895,-71.0725,"Constituent Call","(42.2895, -71.0725)"
101000306808,"07/27/2011 09:31:22 AM","08/26/2011 09:31:22 AM","09/29/2011 08:31:14 AM","OVERDUE","Closed","Case Closed VIOCOR: Violation Corrected","Rodent Activity","Inspectional Services","Environmental Services","Rodent Activity","ISD_Environmental Services (INTERNAL)","ISD",NA,NA,"",NA,"",NA,"","",NA,"",NA,"","",NA,"",NA,42.3594,-71.0587,"Constituent Call","(42.3594, -71.0587)"
101000307023,"07/27/2011 12:51:54 PM","08/26/2011 12:51:54 PM","07/29/2011 10:02:19 AM","ONTIME","Closed","Case Closed VIOCOR: Violation Corrected","Rodent Activity","Inspectional Services","Environmental Services","Rodent Activity","ISD_Environmental Services (INTERNAL)","ISD",NA,NA,"17 Oakdale St  Jamaica Plain  MA  02130",9,"02",6,"E13","Jamaica Plain",11,"Ward 19",1906,"CM","17 Oakdale St",2130,"Address",104705,42.312,-71.1073,"Constituent Call","(42.312, -71.1073)"
101000307083,"07/27/2011 01:26:07 PM","08/26/2011 01:26:07 PM","08/03/2011 10:42:15 AM","ONTIME","Closed","Case Closed NOVIO: No Violation Found/No Cause","Rodent Activity","Inspectional Services","Environmental Services","Rodent Activity","ISD_Environmental Services (INTERNAL)","ISD",NA,NA,"",NA,"",NA,"","",NA,"",NA,"","",NA,"",NA,42.3594,-71.0587,"Constituent Call","(42.3594, -71.0587)"
101000307142,"07/27/2011 02:18:40 PM","08/26/2011 02:18:40 PM","08/30/2011 11:22:55 AM","OVERDUE","Closed","Case Closed VIOCOR: Violation Corrected","Rodent Activity","Inspectional Services","Environmental Services","Rodent Activity","ISD_Environmental Services (INTERNAL)","ISD",NA,NA,"",NA,"",NA,"","",NA,"",NA,"","",NA,"",NA,42.3594,-71.0587,"Constituent Call","(42.3594, -71.0587)"
101000307258,"07/27/2011 04:29:41 PM","08/26/2011 04:29:41 PM","11/07/2011 10:47:52 AM","OVERDUE","Closed","Case Closed VIOCOR: Violation Corrected","Rodent Activity","Inspectional Services","Environmental Services","Rodent Activity","ISD_Environmental Services (INTERNAL)","ISD",NA,NA,"",NA,"",NA,"","",NA,"",NA,"","",NA,"",NA,42.3594,-71.0587,"Constituent Call","(42.3594, -71.0587)"
101000307336,"07/27/2011 08:48:17 PM","08/26/2011 08:48:17 PM","08/03/2011 10:40:53 AM","ONTIME","Closed","Case Closed NOVIO: No Violation Found/No Cause","Rodent Activity","Inspectional Services","Environmental Services","Rodent Activity","ISD_Environmental Services (INTERNAL)","ISD",NA,NA,"INTERSECTION of Dingley Pl & Fayette St  Boston  MA",4,"1C",2,"A1","Back Bay",6,"Ward 5",501,"","INTERSECTION Dingley Pl & Fayette St",NA,"Intersection",4089,42.3488,-71.0676,"Constituent Call","(42.3488, -71.0676)"
101000307387,"07/28/2011 08:06:16 AM","08/27/2011 08:06:16 AM","08/02/2011 09:42:13 AM","ONTIME","Closed","Case Closed VIOISS: Violation Filed","Rodent Activity","Inspectional Services","Environmental Services","Rodent Activity","ISD_Environmental Services (INTERNAL)","ISD",NA,NA,"",NA,"",NA,"","",NA,"",NA,"","",NA,"",NA,42.3594,-71.0587,"Constituent Call","(42.3594, -71.0587)"
101000307416,"07/28/2011 09:06:19 AM","08/27/2011 09:06:18 AM","08/08/2011 08:43:29 AM","ONTIME","Closed","Case Closed VIOCOR: Violation Corrected","Rodent Activity","Inspectional Services","Environmental Services","Rodent Activity","ISD_Environmental Services (INTERNAL)","ISD",NA,NA,"140 Cedar St  Roxbury  MA  02119",9,"10B",7,"B2","Roxbury",13,"Ward 11",1101,"R3","140 Cedar St",2119,"Address",26778,42.3272,-71.0945,"Constituent Call","(42.3272, -71.0945)"
101000307429,"07/28/2011 09:25:22 AM","08/27/2011 09:25:22 AM","08/08/2011 08:57:40 AM","ONTIME","Closed","Case Closed NOVIO: No Violation Found/No Cause","Rodent Activity","Inspectional Services","Environmental Services","Rodent Activity","ISD_Environmental Services (INTERNAL)","ISD",NA,NA,"17-23 Eastburn St  Brighton  MA  02135",11,"04",9,"D14","Allston / Brighton",15,"Ward 22",2209,"R3","17-23 Eastburn St",2135,"Address",50867,42.3482,-71.1568,"Constituent Call","(42.3482, -71.1568)"
101000307606,"07/28/2011 12:44:06 PM","08/27/2011 12:44:06 PM","10/04/2011 08:46:05 AM","OVERDUE","Closed","Case Closed VIOCOR: Violation Corrected","Rodent Activity","Inspectional Services","Environmental Services","Rodent Activity","ISD_Environmental Services (INTERNAL)","ISD",NA,NA,"38-40 Ranelegh Rd  Brighton  MA  02135",11,"04",9,"D14","Allston / Brighton",15,"Ward 22",2211,"R2","38-40 Ranelegh Rd",2135,"Address",114565,42.3569,-71.1611,"Constituent Call","(42.3569, -71.1611)"
101000307608,"07/28/2011 12:47:51 PM","08/27/2011 12:47:50 PM","08/18/2011 10:26:54 AM","ONTIME","Closed","Case Closed NOVIO: No Violation Found/No Cause","Rodent Activity","Inspectional Services","Environmental Services","Rodent Activity","ISD_Environmental Services (INTERNAL)","ISD",NA,NA,"164 Prince St  Boston  MA  02113",3,"1B",1,"A1","Downtown / Financial District",3,"Ward 3",304,"RC","164 Prince St",2113,"Address",112875,42.367,-71.058,"Constituent Call","(42.367, -71.058)"
101000307630,"07/28/2011 01:43:01 PM","08/27/2011 01:43:00 PM","02/03/2012 10:42:10 AM","OVERDUE","Closed","Case Closed VIOCOR: Violation Corrected","Rodent Activity","Inspectional Services","Environmental Services","Rodent Activity","ISD_Environmental Services (INTERNAL)","ISD",NA,NA,"61 Mount Vernon St  Boston  MA  02108",3,"1B",8,"A1","Beacon Hill",14,"Ward 5",503,"CM","61 Mount Vernon St",2108,"Address",98638,42.3585,-71.0662,"Constituent Call","(42.3585, -71.0662)"
101000307680,"07/28/2011 03:13:02 PM","08/27/2011 03:13:01 PM","08/09/2011 08:06:14 AM","ONTIME","Closed","Case Closed VIOISS: Violation Filed","Rodent Activity","Inspectional Services","Environmental Services","Rodent Activity","ISD_Environmental Services (INTERNAL)","ISD",NA,NA,"135 Neponset Ave  Dorchester  MA  02122",8,"07",3,"C11","Dorchester",7,"Ward 16",1605,"CM","135 Neponset Ave",2122,"Address",100740,42.2938,-71.052,"Constituent Call","(42.2938, -71.052)"
101000307886,"07/29/2011 09:07:23 AM","08/28/2011 09:07:22 AM","02/06/2012 11:43:17 AM","OVERDUE","Closed","Case Closed VIOCOR: Violation Corrected","Rodent Activity","Inspectional Services","Environmental Services","Rodent Activity","ISD_Environmental Services (INTERNAL)","ISD",NA,NA,"14 Rogers St  South Boston  MA  02127",6,"05",2,"C6","South Boston / South Boston Waterfront",5,"Ward 7",706,"R2","14 Rogers St",2127,"Address",118056,42.3298,-71.0555,"Constituent Call","(42.3298, -71.0555)"
101000307893,"07/29/2011 09:17:19 AM","08/28/2011 09:17:19 AM","08/03/2011 10:12:59 AM","ONTIME","Closed","Case Closed NOVIO: No Violation Found/No Cause","Rodent Activity","Inspectional Services","Environmental Services","Rodent Activity","ISD_Environmental Services (INTERNAL)","ISD",NA,NA,"77 Warren Ave  Boston  MA  02116",4,"1C",2,"D4","South End",6,"Ward 4",401,"R2","77 Warren Ave",2116,"Address",143066,42.3449,-71.0729,"Constituent Call","(42.3449, -71.0729)"
101000307910,"07/29/2011 09:58:23 AM","08/28/2011 09:58:23 AM","08/08/2011 09:17:11 AM","ONTIME","Closed","Case Closed NOVIO: No Violation Found/No Cause","Rodent Activity","Inspectional Services","Environmental Services","Rodent Activity","ISD_Environmental Services (INTERNAL)","ISD",NA,NA,"11 Royal St  Allston  MA  02134",11,"04",9,"D14","Allston / Brighton",15,"Ward 22",2201,"CM","11 Royal St",2134,"Address",119293,42.3573,-71.1296,"Constituent Call","(42.3573, -71.1296)"
101000308068,"07/29/2011 12:36:32 PM","08/28/2011 12:36:32 PM","08/08/2011 09:15:02 AM","ONTIME","Closed","Case Closed NOVIO: No Violation Found/No Cause","Rodent Activity","Inspectional Services","Environmental Services","Rodent Activity","ISD_Environmental Services (INTERNAL)","ISD",NA,NA,"3345-3349 Washington St  Jamaica Plain  MA  02130",9,"02",6,"E13","Jamaica Plain",11,"Ward 11",1106,"E","3345-3349 Washington St",2130,"Address",144902,42.3097,-71.1046,"Constituent Call","(42.3097, -71.1046)"
101000308138,"07/29/2011 02:01:25 PM","08/28/2011 02:01:24 PM","09/23/2011 09:27:01 AM","OVERDUE","Closed","Case Closed VIOCOR: Violation Corrected","Rodent Activity","Inspectional Services","Environmental Services","Rodent Activity","ISD_Environmental Services (INTERNAL)","ISD",NA,NA,"86 Chesterfield St  Hyde Park  MA  02136",12,"08",5,"E18","Hyde Park",10,"Ward 18",1820,"R1","86 Chesterfield St",2136,"Address",30981,42.2419,-71.1382,"Constituent Call","(42.2419, -71.1382)"
101000308353,"07/30/2011 02:44:27 PM","08/29/2011 02:44:26 PM","08/08/2011 09:19:24 AM","ONTIME","Closed","Case Closed NOVIO: No Violation Found/No Cause","Rodent Activity","Inspectional Services","Environmental Services","Rodent Activity","ISD_Environmental Services (INTERNAL)","ISD",NA,NA,"",NA,"",NA,"","",NA,"",NA,"","",NA,"",NA,42.3594,-71.0587,"Constituent Call","(42.3594, -71.0587)"
101000308354,"07/30/2011 02:49:39 PM","08/29/2011 02:49:39 PM","08/01/2011 07:00:00 AM","ONTIME","Closed","Case Closed VIOISS: Violation Filed","Rodent Activity","Inspectional Services","Environmental Services","Rodent Activity","ISD_Environmental Services (INTERNAL)","ISD",NA,NA,"",NA,"",NA,"","",NA,"",NA,"","",NA,"",NA,42.3594,-71.0587,"Constituent Call","(42.3594, -71.0587)"
101000308411,"07/30/2011 11:23:48 PM","08/29/2011 11:23:48 PM","08/03/2011 10:30:55 AM","ONTIME","Closed","Case Closed NOVIO: No Violation Found/No Cause","Rodent Activity","Inspectional Services","Environmental Services","Rodent Activity","ISD_Environmental Services (INTERNAL)","ISD",NA,NA,"15-18 Trinity Ter  Dorchester  MA  02121",7,"03",4,"B3","Dorchester",8,"14",1402,"A","15-18 Trinity Ter",2121,"Address",155027,42.3012,-71.0776,"Constituent Call","(42.3012, -71.0776)"
101000308579,"08/01/2011 07:02:42 AM","08/31/2011 07:02:42 AM","05/25/2012 09:26:01 AM","OVERDUE","Closed","Case Closed VIOCOR: Violation Corrected","Rodent Activity","Inspectional Services","Environmental Services","Rodent Activity","ISD_Environmental Services (INTERNAL)","ISD",NA,NA,"530 Washington St  Brighton  MA  02135",11,"04",9,"D14","Allston / Brighton",15,"Ward 22",2210,"A","530 Washington St",2135,"Address",143609,42.3488,-71.1633,"Constituent Call","(42.3488, -71.1633)"
101000308615,"08/01/2011 08:46:35 AM","08/31/2011 08:46:34 AM","08/10/2011 10:09:18 AM","ONTIME","Closed","Case Closed NOVIO: No Violation Found/No Cause","Rodent Activity","Inspectional Services","Environmental Services","Rodent Activity","ISD_Environmental Services (INTERNAL)","ISD",NA,NA,"160 Lake St  Brighton  MA  02135",11,"04",9,"D14","Allston / Brighton",15,"Ward 22",2208,"R2","160 Lake St",2135,"Address",83004,42.346,-71.1627,"Constituent Call","(42.346, -71.1627)"
101000308619,"08/01/2011 08:55:28 AM","08/31/2011 08:55:28 AM","09/01/2011 09:59:48 AM","OVERDUE","Closed","Case Closed NOVIO: No Violation Found/No Cause","Rodent Activity","Inspectional Services","Environmental Services","Rodent Activity","ISD_Environmental Services (INTERNAL)","ISD",NA,NA,"805 Huntington Ave  Boston  MA  02115",4,"10A",8,"B2","Mission Hill",14,"Ward 10",1004,"EA","805 Huntington Ave",2115,"Address",255869,42.3336,-71.1083,"Constituent Call","(42.3336, -71.1083)"
101000308636,"08/01/2011 09:15:44 AM","08/31/2011 09:15:44 AM","08/02/2011 06:59:04 AM","ONTIME","Closed","Case Closed VIOISS: Violation Filed","Rodent Activity","Inspectional Services","Environmental Services","Rodent Activity","ISD_Environmental Services (INTERNAL)","ISD",NA,NA,"160 Lake St  Brighton  MA  02135",11,"04",9,"D14","Allston / Brighton",15,"Ward 22",2208,"R2","160 Lake St",2135,"Address",83004,42.346,-71.1627,"Constituent Call","(42.346, -71.1627)"
101000308683,"08/01/2011 09:51:54 AM","08/31/2011 09:51:53 AM","08/18/2011 12:37:14 PM","ONTIME","Closed","Case Closed VIOCOR: Violation Corrected","Rodent Activity","Inspectional Services","Environmental Services","Rodent Activity","ISD_Environmental Services (INTERNAL)","ISD",NA,NA,"62 Gretter Rd  Roslindale  MA  02132",9,"06",6,"E5","West Roxbury",12,"Ward 20",2006,"R1","62 Gretter Rd",2132,"Address",67041,42.2948,-71.1418,"Constituent Call","(42.2948, -71.1418)"
101000308698,"08/01/2011 09:53:10 AM","08/31/2011 09:53:10 AM","08/30/2011 11:24:39 AM","ONTIME","Closed","Case Closed VIOCOR: Violation Corrected","Rodent Activity","Inspectional Services","Environmental Services","Rodent Activity","ISD_Environmental Services (INTERNAL)","ISD",NA,NA,"",NA,"",NA,"","",NA,"",NA,"","",NA,"",NA,42.3594,-71.0587,"Constituent Call","(42.3594, -71.0587)"
101000308767,"08/01/2011 10:43:25 AM","08/31/2011 10:43:25 AM","08/10/2011 11:09:10 AM","ONTIME","Closed","Case Closed NOVIO: No Violation Found/No Cause","Rodent Activity","Inspectional Services","Environmental Services","Rodent Activity","ISD_Environmental Services (INTERNAL)","ISD",NA,NA,"6 Joy St  Boston  MA  02108",3,"1B",8,"A1","Downtown / Financial District",14,"Ward 5",503,"A","6 Joy St",2108,"Address",80183,42.3582,-71.0649,"Constituent Call","(42.3582, -71.0649)"
101000308944,"08/01/2011 02:22:26 PM","08/31/2011 02:22:26 PM","08/11/2011 08:48:23 AM","ONTIME","Closed","Case Closed NOVIO: No Violation Found/No Cause","Rodent Activity","Inspectional Services","Environmental Services","Rodent Activity","ISD_Environmental Services (INTERNAL)","ISD",NA,NA,"",NA,"",NA,"","",NA,"",NA,"","",NA,"",NA,42.3594,-71.0587,"Constituent Call","(42.3594, -71.0587)"
101000308985,"08/01/2011 03:29:46 PM","08/31/2011 03:29:46 PM","07/19/2012 11:20:55 AM","OVERDUE","Closed","Case Closed NOVIO: No Violation Found/No Cause","Rodent Activity","Inspectional Services","Environmental Services","Rodent Activity","ISD_Environmental Services (INTERNAL)","ISD",NA,NA,"28 Jenkins St  South Boston  MA  02127",6,"05",2,"C6","South Boston / South Boston Waterfront",5,"Ward 7",706,"R1","28 Jenkins St",2127,"Address",79624,42.3303,-71.0531,"Constituent Call","(42.3303, -71.0531)"
101000309049,"08/01/2011 06:42:39 PM","08/31/2011 06:42:38 PM","08/08/2011 09:05:26 AM","ONTIME","Closed","Case Closed NOVIO: No Violation Found/No Cause","Rodent Activity","Inspectional Services","Environmental Services","Rodent Activity","ISD_Environmental Services (INTERNAL)","ISD",NA,NA,"INTERSECTION of Dudley St & Rockford St  Roxbury  MA",7,"03",7,"B2","Roxbury",13,"Ward 8",805,"","INTERSECTION Dudley St & Rockford St",NA,"Intersection",4282,42.3228,-71.073,"Constituent Call","(42.3228, -71.073)"
101000309062,"08/01/2011 07:27:53 PM","08/31/2011 07:27:53 PM","08/08/2011 08:40:13 AM","ONTIME","Closed","Case Closed NOVIO: No Violation Found/No Cause","Rodent Activity","Inspectional Services","Environmental Services","Rodent Activity","ISD_Environmental Services (INTERNAL)","ISD",NA,NA,"INTERSECTION of Green St & Lamartine St  Jamaica Plain  MA",9,"02",6,"E13","Jamaica Plain",11,"Ward 19",1906,"","INTERSECTION Green St & Lamartine St",NA,"Intersection",5435,42.3112,-71.1088,"Constituent Call","(42.3112, -71.1088)"
101000309069,"08/01/2011 08:11:08 PM","08/31/2011 08:11:08 PM","08/08/2011 09:07:44 AM","ONTIME","Closed","Case Closed NOVIO: No Violation Found/No Cause","Rodent Activity","Inspectional Services","Environmental Services","Rodent Activity","ISD_Environmental Services (INTERNAL)","ISD",NA,NA,"",NA,"",NA,"","",NA,"",NA,"","",NA,"",NA,42.3594,-71.0587,"Constituent Call","(42.3594, -71.0587)"
101000309084,"08/01/2011 10:55:47 PM","08/31/2011 10:55:47 PM","08/10/2011 11:06:52 AM","ONTIME","Closed","Case Closed NOVIO: No Violation Found/No Cause","Rodent Activity","Inspectional Services","Environmental Services","Rodent Activity","ISD_Environmental Services (INTERNAL)","ISD",NA,NA,"440 Tremont St  Roxbury  MA  02118",4,"1C",2,"D4","South End",6,"Ward 5",501,"","440 Tremont St",2118,"Address",174238,42.3465,-71.0688,"Constituent Call","(42.3465, -71.0688)"
101000309204,"08/02/2011 09:46:39 AM","09/01/2011 09:46:30 AM","08/08/2011 08:39:10 AM","ONTIME","Closed","Case Closed NOVIO: No Violation Found/No Cause","Rodent Activity","Inspectional Services","Environmental Services","Rodent Activity","ISD_Environmental Services (INTERNAL)","ISD",NA,NA,"",NA,"",NA,"","",NA,"",NA,"","",NA,"",NA,42.3594,-71.0587,"Constituent Call","(42.3594, -71.0587)"
101000309208,"08/02/2011 09:48:24 AM","09/01/2011 09:48:24 AM","08/23/2011 11:17:39 AM","ONTIME","Closed","Case Closed VIOCOR: Violation Corrected","Rodent Activity","Inspectional Services","Environmental Services","Rodent Activity","ISD_Environmental Services (INTERNAL)","ISD",NA,NA,"79-85 Atlantic Ave  Boston  MA  02109",3,"1B",1,"A1","Downtown / Financial District",3,"Ward 3",301,"RC","79-85 Atlantic Ave",2109,"Address",6356,42.3626,-71.0512,"Constituent Call","(42.3626, -71.0512)"
101000309216,"08/02/2011 09:50:14 AM","09/01/2011 09:50:13 AM","08/23/2011 11:15:22 AM","ONTIME","Closed","Case Closed VIOCOR: Violation Corrected","Rodent Activity","Inspectional Services","Environmental Services","Rodent Activity","ISD_Environmental Services (INTERNAL)","ISD",NA,NA,"63 Atlantic Ave  Boston  MA  02110",3,"1B",1,"A1","Boston",3,"03",301,"CD","63 Atlantic Ave",2110,"Address",6315,42.363,-71.0513,"Constituent Call","(42.363, -71.0513)"
101000309218,"08/02/2011 09:51:46 AM","09/01/2011 09:51:46 AM","08/10/2011 10:46:34 AM","ONTIME","Closed","Case Closed VIOCOR: Violation Corrected","Rodent Activity","Inspectional Services","Environmental Services","Rodent Activity","ISD_Environmental Services (INTERNAL)","ISD",NA,NA,"10 Harris St  Boston  MA  02109",3,"1B",1,"A1","Downtown / Financial District",3,"Ward 3",301,"R4","10 Harris St",2109,"Address",69690,42.3656,-71.0525,"Constituent Call","(42.3656, -71.0525)"
101000309222,"08/02/2011 09:54:45 AM","09/01/2011 09:54:44 AM","08/08/2011 09:04:25 AM","ONTIME","Closed","Case Closed VIOCOR: Violation Corrected","Rodent Activity","Inspectional Services","Environmental Services","Rodent Activity","ISD_Environmental Services (INTERNAL)","ISD",NA,NA,"INTERSECTION of Edgerly Rd & Haviland St  Boston  MA",4,"10A",8,"D4","Back Bay",14,"Ward 4",406,"","INTERSECTION Edgerly Rd & Haviland St",NA,"Intersection",4411,42.3464,-71.0882,"Constituent Call","(42.3464, -71.0882)"
101000309223,"08/02/2011 09:55:00 AM","09/01/2011 09:55:00 AM","08/10/2011 10:43:01 AM","ONTIME","Closed","Case Closed VIOCOR: Violation Corrected","Rodent Activity","Inspectional Services","Environmental Services","Rodent Activity","ISD_Environmental Services (INTERNAL)","ISD",NA,NA,"91A-91B Hudson St  Boston  MA  02111",4,"1C",2,"A1","Downtown / Financial District",4,"Ward 3",308,"R1","91A-91B Hudson St",2111,"Address",75885,42.3486,-71.0611,"Constituent Call","(42.3486, -71.0611)"
101000309226,"08/02/2011 09:56:16 AM","09/01/2011 09:56:16 AM","08/10/2011 10:44:01 AM","ONTIME","Closed","Case Closed VIOCOR: Violation Corrected","Rodent Activity","Inspectional Services","Environmental Services","Rodent Activity","ISD_Environmental Services (INTERNAL)","ISD",NA,NA,"10 Moon St  Boston  MA  02113",3,"1B",1,"A1","Downtown / Financial District",3,"Ward 3",303,"R3","10 Moon St",2113,"Address",97172,42.3641,-71.0529,"Constituent Call","(42.3641, -71.0529)"
101000309232,"08/02/2011 10:00:23 AM","09/01/2011 10:00:23 AM","08/08/2011 09:09:52 AM","ONTIME","Closed","Case Closed NOVIO: No Violation Found/No Cause","Rodent Activity","Inspectional Services","Environmental Services","Rodent Activity","ISD_Environmental Services (INTERNAL)","ISD",NA,NA,"102 Hyde Park Ave  Jamaica Plain  MA  02130",12,"02",6,"E13","Jamaica Plain",10,"Ward 19",1907,"R2","102 Hyde Park Ave",2130,"Address",77000,42.2973,-71.115,"Constituent Call","(42.2973, -71.115)"
101000309241,"08/02/2011 10:04:43 AM","09/01/2011 10:04:43 AM","08/10/2011 10:45:25 AM","ONTIME","Closed","Case Closed VIOCOR: Violation Corrected","Rodent Activity","Inspectional Services","Environmental Services","Rodent Activity","ISD_Environmental Services (INTERNAL)","ISD",NA,NA,"12 Edgerly Rd  Boston  MA  02115",4,"10A",7,"D4","Back Bay",14,"Ward 4",405,"RC","12 Edgerly Rd",2115,"Address",157986,42.3461,-71.0879,"Constituent Call","(42.3461, -71.0879)"
101000309254,"08/02/2011 10:15:30 AM","09/01/2011 10:15:26 AM","08/08/2011 02:37:34 PM","ONTIME","Closed","Case Closed Case Invalid Location is missing  please refere to case H96204-101000311841","Rodent Activity","Inspectional Services","Environmental Services","Rodent Activity","ISD_Environmental Services (INTERNAL)","ISD",NA,NA,"",NA,"",NA,"","",NA,"",NA,"","",NA,"",NA,42.3594,-71.0587,"Constituent Call","(42.3594, -71.0587)"
101000309327,"08/02/2011 11:52:12 AM","09/01/2011 11:52:12 AM","08/10/2011 09:55:40 AM","ONTIME","Closed","Case Closed VIOCOR: Violation Corrected","Rodent Activity","Inspectional Services","Environmental Services","Rodent Activity","ISD_Environmental Services (INTERNAL)","ISD",NA,NA,"22 Gardena St  Brighton  MA  02135",11,"04",9,"D14","Allston / Brighton",15,"Ward 22",2206,"CM","22 Gardena St",2135,"Address",62563,42.3541,-71.1494,"Constituent Call","(42.3541, -71.1494)"
101000309396,"08/02/2011 01:38:05 PM","09/01/2011 01:38:05 PM","08/18/2011 12:00:28 PM","ONTIME","Closed","Case Closed NOVIO: No Violation Found/No Cause","Rodent Activity","Inspectional Services","Environmental Services","Rodent Activity","ISD_Environmental Services (INTERNAL)","ISD",NA,NA,"1954 Commonwealth Ave  Brighton  MA  02135",11,"04",9,"D14","Allston / Brighton",15,"Ward 21",2116,"R3","1954 Commonwealth Ave",2135,"Address",39104,42.3386,-71.1562,"Constituent Call","(42.3386, -71.1562)"
101000309607,"08/03/2011 07:34:56 AM","09/02/2011 07:34:56 AM","08/18/2011 11:37:42 AM","ONTIME","Closed","Case Closed VIOCOR: Violation Corrected","Rodent Activity","Inspectional Services","Environmental Services","Rodent Activity","ISD_Environmental Services (INTERNAL)","ISD",NA,NA,"32-38 Bromfield St  Boston  MA  02108",3,"1C",1,"A1","Downtown / Financial District",3,"Ward 3",306,"C","32-38 Bromfield St",2108,"Address",21784,42.3567,-71.0605,"Constituent Call","(42.3567, -71.0605)"
101000309635,"08/03/2011 08:26:14 AM","09/02/2011 08:26:14 AM","09/15/2011 09:22:55 AM","OVERDUE","Closed","Case Closed VIOCOR: Violation Corrected","Rodent Activity","Inspectional Services","Environmental Services","Rodent Activity","ISD_Environmental Services (INTERNAL)","ISD",NA,NA,"51-53 Woodcliff St  Dorchester  MA  02125",7,"03",7,"B2","Roxbury",13,"Ward 13",1301,"RL","51-53 Woodcliff St",2125,"Address",151482,42.3156,-71.0759,"Constituent Call","(42.3156, -71.0759)"
101000309710,"08/03/2011 10:21:18 AM","09/02/2011 10:21:18 AM","08/10/2011 10:50:46 AM","ONTIME","Closed","Case Closed NOVIO: No Violation Found/No Cause","Rodent Activity","Inspectional Services","Environmental Services","Rodent Activity","ISD_Environmental Services (INTERNAL)","ISD",NA,NA,"250 Everett St  Brighton  MA  02135",11,"04",9,"D14","Allston / Brighton",15,"Ward 22",2202,"C","250 Everett St",2135,"Address",54994,42.3619,-71.1361,"Constituent Call","(42.3619, -71.1361)"
101000309822,"08/03/2011 11:25:14 AM","09/02/2011 11:25:13 AM","08/10/2011 10:52:48 AM","ONTIME","Closed","Case Closed VIOISS: Violation Filed","Rodent Activity","Inspectional Services","Environmental Services","Rodent Activity","ISD_Environmental Services (INTERNAL)","ISD",NA,NA,"62 Gretter Rd  Roslindale  MA  02132",9,"06",6,"E5","West Roxbury",12,"Ward 20",2006,"R1","62 Gretter Rd",2132,"Address",67041,42.2948,-71.1418,"Constituent Call","(42.2948, -71.1418)"
101000309988,"08/03/2011 02:01:19 PM","09/02/2011 02:01:19 PM","08/18/2011 11:33:28 AM","ONTIME","Closed","Case Closed VIOCOR: Violation Corrected","Rodent Activity","Inspectional Services","Environmental Services","Rodent Activity","ISD_Environmental Services (INTERNAL)","ISD",NA,NA,"179 London St  East Boston  MA  02128",1,"09",1,"A7","East Boston",1,"Ward 1",106,"R3","179 London St",2128,"Address",87018,42.3746,-71.0372,"Constituent Call","(42.3746, -71.0372)"
101000309993,"08/03/2011 02:02:56 PM","09/02/2011 02:02:55 PM","08/18/2011 11:41:49 AM","ONTIME","Closed","Case Closed VIOCOR: Violation Corrected","Rodent Activity","Inspectional Services","Environmental Services","Rodent Activity","ISD_Environmental Services (INTERNAL)","ISD",NA,NA,"605 E Fifth St  South Boston  MA  02127",6,"05",2,"C6","South Boston / South Boston Waterfront",5,"Ward 6",606,"CM","605 E Fifth St",2127,"Address",57919,42.3338,-71.0362,"Constituent Call","(42.3338, -71.0362)"
101000310007,"08/03/2011 02:18:40 PM","09/02/2011 02:18:39 PM","08/18/2011 11:05:43 AM","ONTIME","Closed","Case Closed VIOCOR: Violation Corrected","Rodent Activity","Inspectional Services","Environmental Services","Rodent Activity","ISD_Environmental Services (INTERNAL)","ISD",NA,NA,"",NA,"",NA,"","",NA,"",NA,"","",NA,"",NA,42.3594,-71.0587,"Constituent Call","(42.3594, -71.0587)"
101000310035,"08/03/2011 03:23:01 PM","09/02/2011 03:23:01 PM","09/01/2011 10:02:55 AM","ONTIME","Closed","Case Closed VIOCOR: Violation Corrected","Rodent Activity","Inspectional Services","Environmental Services","Rodent Activity","ISD_Environmental Services (INTERNAL)","ISD",NA,NA,"4 Westminster Ave  Roxbury  MA  02119",9,"10B",7,"E13","Roxbury",13,"Ward 11",1103,"R1","4 Westminster Ave",2119,"Address",148533,42.317,-71.0966,"Constituent Call","(42.317, -71.0966)"
101000310039,"08/03/2011 03:29:15 PM","09/02/2011 03:29:15 PM","08/10/2011 10:55:20 AM","ONTIME","Closed","Case Closed NOVIO: No Violation Found/No Cause","Rodent Activity","Inspectional Services","Environmental Services","Rodent Activity","ISD_Environmental Services (INTERNAL)","ISD",NA,NA,"141-143 Norfolk St  Dorchester  MA  02124",8,"07",4,"B3","Greater Mattapan",9,"Ward 17",1707,"C","141-143 Norfolk St",2124,"Address",103178,42.2878,-71.0783,"Constituent Call","(42.2878, -71.0783)"
101000310061,"08/03/2011 04:20:32 PM","09/02/2011 04:20:32 PM","08/10/2011 10:54:21 AM","ONTIME","Closed","Case Closed NOVIO: No Violation Found/No Cause","Rodent Activity","Inspectional Services","Environmental Services","Rodent Activity","ISD_Environmental Services (INTERNAL)","ISD",NA,NA,"",NA,"",NA,"","",NA,"",NA,"","",NA,"",NA,42.3594,-71.0587,"Constituent Call","(42.3594, -71.0587)"
101000310149,"08/04/2011 07:02:59 AM","09/03/2011 07:02:59 AM","09/01/2011 08:18:30 AM","ONTIME","Closed","Case Closed VIOCOR: Violation Corrected","Rodent Activity","Inspectional Services","Environmental Services","Rodent Activity","ISD_Environmental Services (INTERNAL)","ISD",NA,NA,"106-108 Hyde Park Ave  Jamaica Plain  MA  02130",12,"02",6,"E13","Jamaica Plain",10,"Ward 19",1907,"R3","106-108 Hyde Park Ave",2130,"Address",166542,42.2972,-71.115,"Constituent Call","(42.2972, -71.115)"
101000310187,"08/04/2011 08:38:28 AM","09/03/2011 08:38:28 AM","08/30/2011 10:54:05 AM","ONTIME","Closed","Case Closed VIOCOR: Violation Corrected","Rodent Activity","Inspectional Services","Environmental Services","Rodent Activity","ISD_Environmental Services (INTERNAL)","ISD",NA,NA,"",NA,"",NA,"","",NA,"",NA,"","",NA,"",NA,42.3594,-71.0587,"Constituent Call","(42.3594, -71.0587)"
101000310219,"08/04/2011 09:21:46 AM","09/03/2011 09:21:46 AM","09/02/2011 09:31:00 AM","ONTIME","Closed","Case Closed VIOCOR: Violation Corrected","Rodent Activity","Inspectional Services","Environmental Services","Rodent Activity","ISD_Environmental Services (INTERNAL)","ISD",NA,NA,"325-327 Dorchester St  South Boston  MA  02127",6,"05",2,"C6","South Boston / South Boston Waterfront",5,"Ward 7",705,"RC","325-327 Dorchester St",2127,"Address",48990,42.3312,-71.0541,"Constituent Call","(42.3312, -71.0541)"
101000310341,"08/04/2011 11:45:58 AM","09/03/2011 11:45:58 AM","08/18/2011 12:18:28 PM","ONTIME","Closed","Case Closed NOVIO: No Violation Found/No Cause","Rodent Activity","Inspectional Services","Environmental Services","Rodent Activity","ISD_Environmental Services (INTERNAL)","ISD",NA,NA,"4988 Washington St  West Roxbury  MA  02132",12,"06",6,"E5","West Roxbury",10,"Ward 20",2003,"RC","4988 Washington St",2132,"Address",145484,42.2668,-71.1506,"Constituent Call","(42.2668, -71.1506)"
101000310347,"08/04/2011 12:07:34 PM","09/03/2011 12:07:34 PM","08/10/2011 10:48:34 AM","ONTIME","Closed","Case Closed VIOCOR: Violation Corrected","Rodent Activity","Inspectional Services","Environmental Services","Rodent Activity","ISD_Environmental Services (INTERNAL)","ISD",NA,NA,"254 Commonwealth Ave  Boston  MA  02116",4,"1C",8,"D4","Back Bay",14,"Ward 5",508,"CM","254 Commonwealth Ave",2116,"Address",39826,42.3501,-71.0831,"Constituent Call","(42.3501, -71.0831)"
101000310357,"08/04/2011 12:26:25 PM","09/03/2011 12:26:24 PM","08/18/2011 12:39:56 PM","ONTIME","Closed","Case Closed VIOISS: Violation Filed","Rodent Activity","Inspectional Services","Environmental Services","Rodent Activity","ISD_Environmental Services (INTERNAL)","ISD",NA,NA,"28 Marion St  Roslindale  MA  02131",12,"02",5,"E5","Roslindale",10,"Ward 19",1913,"I","28 Marion St",2131,"Address",90098,42.2876,-71.1201,"Constituent Call","(42.2876, -71.1201)"
101000310381,"08/04/2011 01:13:06 PM","09/03/2011 01:13:05 PM","08/10/2011 10:22:32 AM","ONTIME","Closed","Case Closed VIOISS: Violation Filed","Rodent Activity","Inspectional Services","Environmental Services","Rodent Activity","ISD_Environmental Services (INTERNAL)","ISD",NA,NA,"22 Gardena St  Brighton  MA  02135",11,"04",9,"D14","Allston / Brighton",15,"Ward 22",2206,"CM","22 Gardena St",2135,"Address",62563,42.3541,-71.1494,"Constituent Call","(42.3541, -71.1494)"
101000310467,"08/04/2011 04:05:43 PM","09/03/2011 04:05:43 PM","08/23/2011 11:34:37 AM","ONTIME","Closed","Case Closed VIOCOR: Violation Corrected","Rodent Activity","Inspectional Services","Environmental Services","Rodent Activity","ISD_Environmental Services (INTERNAL)","ISD",NA,NA,"48 Litchfield St  Brighton  MA  02135",11,"04",9,"D14","Allston / Brighton",15,"Ward 22",2205,"R1","48 Litchfield St",2135,"Address",86724,42.3596,-71.1413,"Constituent Call","(42.3596, -71.1413)"
101000310548,"08/04/2011 07:58:23 PM","09/03/2011 07:58:23 PM","08/23/2011 11:11:57 AM","ONTIME","Closed","Case Closed NOVIO: No Violation Found/No Cause","Rodent Activity","Inspectional Services","Environmental Services","Rodent Activity","ISD_Environmental Services (INTERNAL)","ISD",NA,NA,"",NA,"",NA,"","",NA,"",NA,"","",NA,"",NA,42.3594,-71.0587,"Constituent Call","(42.3594, -71.0587)"
101000310704,"08/05/2011 10:09:57 AM","09/04/2011 10:09:57 AM","08/30/2011 11:25:38 AM","ONTIME","Closed","Case Closed VIOCOR: Violation Corrected","Rodent Activity","Inspectional Services","Environmental Services","Rodent Activity","ISD_Environmental Services (INTERNAL)","ISD",NA,NA,"1154 Washington St  Roxbury  MA  02118",4,"1C",2,"D4","South End",4,"Ward 3",307,"CM","1154 Washington St",2118,"Address",143853,42.3434,-71.0659,"Constituent Call","(42.3434, -71.0659)"
101000310954,"08/05/2011 03:15:28 PM","09/04/2011 03:15:28 PM","01/27/2012 11:55:01 AM","OVERDUE","Closed","Case Closed VIOISS: Violation Filed","Rodent Activity","Inspectional Services","Environmental Services","Rodent Activity","ISD_Environmental Services (INTERNAL)","ISD",NA,NA,"3347 Washington St  Jamaica Plain  MA  02130",9,"02",6,"E13","Jamaica Plain",11,"11",1106,"","3347 Washington St",2130,"Address",342017,42.3594,-71.0587,"Constituent Call","(42.3594, -71.0587)"
101000311008,"08/05/2011 05:13:08 PM","09/04/2011 05:13:07 PM","12/27/2012 11:12:36 AM","OVERDUE","Closed","Case Closed VIOCOR: Violation Corrected","Rodent Activity","Inspectional Services","Environmental Services","Rodent Activity","ISD_Environmental Services (INTERNAL)","ISD",NA,NA,"3347 Washington St  Jamaica Plain  MA  02130",9,"02",6,"E13","Jamaica Plain",11,"11",1106,"","3347 Washington St",2130,"Address",342017,42.3594,-71.0587,"Constituent Call","(42.3594, -71.0587)"
101000311366,"08/07/2011 06:41:45 PM","09/06/2011 06:41:44 PM","08/10/2011 10:56:27 AM","ONTIME","Closed","Case Closed NOVIO: No Violation Found/No Cause","Rodent Activity","Inspectional Services","Environmental Services","Rodent Activity","ISD_Environmental Services (INTERNAL)","ISD",NA,NA,"45 Centre St  Roxbury  MA  02119",7,"10B",7,"B2","Roxbury",13,"Ward 9",905,"A","45 Centre St",2119,"Address",28047,42.3297,-71.0938,"Constituent Call","(42.3297, -71.0938)"
101000311370,"08/07/2011 07:21:52 PM","09/06/2011 07:21:52 PM","08/23/2011 11:37:57 AM","ONTIME","Closed","Case Closed VIOCOR: Violation Corrected","Rodent Activity","Inspectional Services","Environmental Services","Rodent Activity","ISD_Environmental Services (INTERNAL)","ISD",NA,NA,"15-17 Hooker St  Allston  MA  02134",11,"04",9,"D14","Allston / Brighton",15,"Ward 22",2201,"R2","15-17 Hooker St",2134,"Address",75163,42.3579,-71.1294,"Constituent Call","(42.3579, -71.1294)"
101000311622,"08/08/2011 10:14:28 AM","09/07/2011 10:14:28 AM","09/01/2011 08:54:13 AM","ONTIME","Closed","Case Closed VIOCOR: Violation Corrected","Rodent Activity","Inspectional Services","Environmental Services","Rodent Activity","ISD_Environmental Services (INTERNAL)","ISD",NA,NA,"31 Justin Rd  Brighton  MA  02135",11,"04",9,"D14","Allston / Brighton",15,"Ward 22",2213,"R2","31 Justin Rd",2135,"Address",80433,42.3532,-71.1691,"Constituent Call","(42.3532, -71.1691)"
101000311633,"08/08/2011 10:26:57 AM","09/07/2011 10:26:56 AM","08/23/2011 11:16:32 AM","ONTIME","Closed","Case Closed VIOCOR: Violation Corrected","Rodent Activity","Inspectional Services","Environmental Services","Rodent Activity","ISD_Environmental Services (INTERNAL)","ISD",NA,NA,"34 Cooper St  Boston  MA  02113",3,"1B",1,"A1","Downtown / Financial District",3,"Ward 3",304,"CL","34 Cooper St",2113,"Address",42410,42.3644,-71.0568,"Constituent Call","(42.3644, -71.0568)"
101000311635,"08/08/2011 10:28:21 AM","09/07/2011 10:28:21 AM","08/10/2011 10:41:47 AM","ONTIME","Closed","Case Closed VIOCOR: Violation Corrected","Rodent Activity","Inspectional Services","Environmental Services","Rodent Activity","ISD_Environmental Services (INTERNAL)","ISD",NA,NA,"157-159 Friend St  Boston  MA  02114",3,"1B",1,"A1","Downtown / Financial District",3,"Ward 3",306,"E","157-159 Friend St",2114,"Address",60982,42.3636,-71.0598,"Constituent Call","(42.3636, -71.0598)"
101000311655,"08/08/2011 10:40:17 AM","09/07/2011 10:40:17 AM","08/23/2011 11:51:15 AM","ONTIME","Closed","Case Closed VIOCOR: Violation Corrected","Rodent Activity","Inspectional Services","Environmental Services","Rodent Activity","ISD_Environmental Services (INTERNAL)","ISD",NA,NA,"",NA,"",NA,"","",NA,"",NA,"","",NA,"",NA,42.3594,-71.0587,"Constituent Call","(42.3594, -71.0587)"
101000311679,"08/08/2011 11:13:54 AM","09/07/2011 11:13:54 AM","10/11/2011 11:33:25 AM","OVERDUE","Closed","Case Closed VIOCOR: Violation Corrected","Rodent Activity","Inspectional Services","Environmental Services","Rodent Activity","ISD_Environmental Services (INTERNAL)","ISD",NA,NA,"28 Custer St  Jamaica Plain  MA  02130",9,"02",6,"E13","Jamaica Plain",11,"Ward 11",1109,"R2","28 Custer St",2130,"Address",45253,42.3072,-71.1171,"Constituent Call","(42.3072, -71.1171)"
101000311713,"08/08/2011 11:59:03 AM","09/07/2011 11:59:02 AM","08/11/2011 08:53:34 AM","ONTIME","Closed","Case Closed NOVIO: No Violation Found/No Cause","Rodent Activity","Inspectional Services","Environmental Services","Rodent Activity","ISD_Environmental Services (INTERNAL)","ISD",NA,NA,"17 Dr. Mary Moore Beatty Cir  Mattapan  MA  02126",8,"07",4,"B3","Greater Mattapan",9,"18",1801,"E","17 Dr. Mary Moore Beatty Cir",2126,"Address",174182,42.2731,-71.0795,"Constituent Call","(42.2731, -71.0795)"
101000311841,"08/08/2011 02:35:28 PM","09/07/2011 02:35:26 PM","08/30/2011 12:10:50 PM","ONTIME","Closed","Case Closed VIOCOR: Violation Corrected","Rodent Activity","Inspectional Services","Environmental Services","Rodent Activity","ISD_Environmental Services (INTERNAL)","ISD",NA,NA,"12 Edgerly Rd  Boston  MA  02115",4,"10A",7,"D4","Back Bay",14,"Ward 4",405,"RC","12 Edgerly Rd",2115,"Address",157986,42.3461,-71.0879,"Constituent Call","(42.3461, -71.0879)"
101000311939,"08/08/2011 05:46:20 PM","09/07/2011 05:46:20 PM","08/23/2011 11:54:40 AM","ONTIME","Closed","Case Closed NOVIO: No Violation Found/No Cause","Rodent Activity","Inspectional Services","Environmental Services","Rodent Activity","ISD_Environmental Services (INTERNAL)","ISD",NA,NA,"",NA,"",NA,"","",NA,"",NA,"","",NA,"",NA,42.3594,-71.0587,"Constituent Call","(42.3594, -71.0587)"
101000311983,"08/08/2011 10:06:13 PM","09/07/2011 10:06:13 PM","08/18/2011 09:51:44 AM","ONTIME","Closed","Case Closed VIOISS: Violation Filed","Rodent Activity","Inspectional Services","Environmental Services","Rodent Activity","ISD_Environmental Services (INTERNAL)","ISD",NA,NA,"",NA,"",NA,"","",NA,"",NA,"","",NA,"",NA,42.3594,-71.0587,"Constituent Call","(42.3594, -71.0587)"
101000311986,"08/08/2011 11:02:23 PM","09/07/2011 11:02:21 PM","12/27/2011 10:59:19 AM","OVERDUE","Closed","Case Closed VIOCOR: Violation Corrected","Rodent Activity","Inspectional Services","Environmental Services","Rodent Activity","ISD_Environmental Services (INTERNAL)","ISD",NA,NA,"",NA,"",NA,"","",NA,"",NA,"","",NA,"",NA,42.3594,-71.0587,"Constituent Call","(42.3594, -71.0587)"
101000312086,"08/09/2011 09:32:34 AM","09/08/2011 09:32:33 AM","08/30/2011 12:13:08 PM","ONTIME","Closed","Case Closed VIOCOR: Violation Corrected","Rodent Activity","Inspectional Services","Environmental Services","Rodent Activity","ISD_Environmental Services (INTERNAL)","ISD",NA,NA,"28 Sagamore St  Dorchester  MA  02125",7,"03",3,"C11","Dorchester",7,"Ward 13",1309,"R3","28 Sagamore St",2125,"Address",302886,42.314,-71.0551,"Constituent Call","(42.314, -71.0551)"
101000312222,"08/09/2011 01:02:54 PM","09/08/2011 01:02:53 PM","08/18/2011 11:46:12 AM","ONTIME","Closed","Case Closed VIOCOR: Violation Corrected","Rodent Activity","Inspectional Services","Environmental Services","Rodent Activity","ISD_Environmental Services (INTERNAL)","ISD",NA,NA,"250 Commonwealth Ave  Boston  MA  02116",4,"1C",8,"D4","Back Bay",14,"Ward 5",508,"CM","250 Commonwealth Ave",2116,"Address",39794,42.3502,-71.0828,"Constituent Call","(42.3502, -71.0828)"
